[{"name": "New York City", "country": "US", "coord": {"lat": 40.714272, "lon": -74.005966}, "state": "NY", "id": 5128581, "population": 8336817}, {"name": "Los Angeles", "country": "US", "coord": {"lat": 34.052231, "lon": -118.243683}, "state": "CA", "id": 5368361, "population": 3979576}, {"name": "Phoenix", "country": "US", "coord": {"lat": 41.611149, "lon": -87.634773}, "state": "IL", "id": 4905873, "population": 1680992}, {"name": "Phoenix", "country": "US", "coord": {"lat": 43.231178, "lon": -76.300758}, "state": "NY", "id": 5131135, "population": 1680992}, {"name": "Phoenix", "country": "US", "coord": {"lat": 33.44838, "lon": -112.074043}, "state": "AZ", "id": 5308655, "population": 1680992}, {"name": "Phoenix", "country": "US", "coord": {"lat": 42.27541, "lon": -122.818092}, "state": "OR", "id": 5745656, "population": 1680992}, {"name": "San Jose", "country": "US", "coord": {"lat": 37.33939, "lon": -121.894958}, "state": "CA", "id": 5392171, "population": 1021795}, {"name": "Fort Worth", "country": "US", "coord": {"lat": 32.72541, "lon": -97.320847}, "state": "TX", "id": 4691930, "population": 909585}, {"name": "San Francisco", "country": "US", "coord": {"lat": 37.774929, "lon": -122.419418}, "state": "CA", "id": 5391959, "population": 881549}, {"name": "Indianapolis", "country": "US", "coord": {"lat": 39.768379, "lon": -86.158043}, "state": "IN", "id": 4259418, "population": 876384}, {"name": "Indianapolis", "country": "US", "coord": {"lat": 41.39695, "lon": -92.433517}, "state": "IA", "id": 4861716, "population": 876384}, {"name": "Seattle", "country": "US", "coord": {"lat": 47.606209, "lon": -122.332069}, "state": "WA", "id": 5809844, "population": 753675}, {"name": "Denver City", "country": "US", "coord": {"lat": 32.96455, "lon": -102.829102}, "state": "TX", "id": 5520110, "population": 727211}, {"name": "District of Columbia", "country": "US", "coord": {"lat": 38.917061, "lon": -77.000252}, "state": "DC", "id": 4138106, "population": 705749}, {"name": "El Paso", "country": "US", "coord": {"lat": 40.739201, "lon": -89.016457}, "state": "IL", "id": 4890813, "population": 681728}, {"name": "El Paso", "country": "US", "coord": {"lat": 31.75872, "lon": -106.486931}, "state": "TX", "id": 5520993, "population": 681728}, {"name": "Oklahoma City", "country": "US", "coord": {"lat": 35.46756, "lon": -97.516434}, "state": "OK", "id": 4544349, "population": 655057}, {"name": "Memphis", "country": "US", "coord": {"lat": 27.53587, "lon": -82.561211}, "state": "FL", "id": 4164047, "population": 651073}, {"name": "Memphis", "country": "US", "coord": {"lat": 35.149529, "lon": -90.048981}, "state": "TN", "id": 4641239, "population": 651073}, {"name": "Memphis", "country": "US", "coord": {"lat": 42.89642, "lon": -82.768806}, "state": "MI", "id": 5001644, "population": 651073}, {"name": "Memphis", "country": "US", "coord": {"lat": 40.457809, "lon": -92.171288}, "state": "MO", "id": 5056241, "population": 651073}, {"name": "Memphis", "country": "US", "coord": {"lat": 34.724781, "lon": -100.534012}, "state": "TX", "id": 5526145, "population": 651073}, {"name": "Jefferson County", "country": "US", "coord": {"lat": 33.583439, "lon": -86.866661}, "state": "AL", "id": 4069696, "population": 617638}, {"name": "Jefferson County", "country": "US", "coord": {"lat": 34.233429, "lon": -91.900139}, "state": "AR", "id": 4116433, "population": 617638}, {"name": "Jefferson County", "country": "US", "coord": {"lat": 38.300049, "lon": -88.933403}, "state": "IL", "id": 4241773, "population": 617638}, {"name": "Jefferson County", "country": "US", "coord": {"lat": 38.183399, "lon": -85.649963}, "state": "KY", "id": 4296212, "population": 617638}, {"name": "Jefferson County", "country": "US", "coord": {"lat": 38.26672, "lon": -90.583458}, "state": "MO", "id": 4392394, "population": 617638}, {"name": "Jefferson County", "country": "US", "coord": {"lat": 29.883551, "lon": -94.150177}, "state": "TX", "id": 4700821, "population": 617638}, {"name": "Jefferson County", "country": "US", "coord": {"lat": 41.033352, "lon": -91.950172}, "state": "IA", "id": 4862494, "population": 617638}, {"name": "Jefferson County", "country": "US", "coord": {"lat": 44.05006, "lon": -75.899651}, "state": "NY", "id": 5122581, "population": 617638}, {"name": "Jefferson County", "country": "US", "coord": {"lat": 40.36673, "lon": -80.750076}, "state": "OH", "id": 5159079, "population": 617638}, {"name": "Jefferson County", "country": "US", "coord": {"lat": 41.25034, "lon": -79.125038}, "state": "PA", "id": 5195307, "population": 617638}, {"name": "Jefferson County", "country": "US", "coord": {"lat": 43.03334, "lon": -88.766769}, "state": "WI", "id": 5257788, "population": 617638}, {"name": "Jefferson County", "country": "US", "coord": {"lat": 39.63332, "lon": -105.267212}, "state": "CO", "id": 5426503, "population": 617638}, {"name": "Jefferson County", "country": "US", "coord": {"lat": 44.633171, "lon": -121.334488}, "state": "OR", "id": 5733534, "population": 617638}, {"name": "Jefferson County", "country": "US", "coord": {"lat": 47.616482, "lon": -123.08461}, "state": "WA", "id": 5798663, "population": 617638}, {"name": "Waukee", "country": "US", "coord": {"lat": 41.61166, "lon": -93.885231}, "state": "IA", "id": 4880981, "population": 590157}, {"name": "Milwaukee", "country": "US", "coord": {"lat": 43.038898, "lon": -87.906471}, "state": "WI", "id": 5263045, "population": 590157}, {"name": "Albuquerque", "country": "US", "coord": {"lat": 35.084492, "lon": -106.651138}, "state": "NM", "id": 5454711, "population": 560513}, {"name": "Fresno", "country": "US", "coord": {"lat": 29.538851, "lon": -95.447441}, "state": "TX", "id": 4692400, "population": 531576}, {"name": "Fresno", "country": "US", "coord": {"lat": 36.74773, "lon": -119.772369}, "state": "CA", "id": 5350937, "population": 531576}, {"name": "Colorado Springs", "country": "US", "coord": {"lat": 38.833881, "lon": -104.821358}, "state": "CO", "id": 5417598, "population": 478221}, {"name": "Virginia Beach", "country": "US", "coord": {"lat": 36.852928, "lon": -75.977982}, "state": "VA", "id": 4791259, "population": 449974}, {"name": "Minneapolis", "country": "US", "coord": {"lat": 39.121941, "lon": -97.706703}, "state": "KS", "id": 4275586, "population": 429606}, {"name": "Minneapolis", "country": "US", "coord": {"lat": 44.979969, "lon": -93.26384}, "state": "MN", "id": 5037649, "population": 429606}, {"name": "Tulsa", "country": "US", "coord": {"lat": 36.15398, "lon": -95.992783}, "state": "OK", "id": 4553433, "population": 401190}, {"name": "Tampa", "country": "US", "coord": {"lat": 27.947519, "lon": -82.458427}, "state": "FL", "id": 4174757, "population": 399700}, {"name": "New Orleans", "country": "US", "coord": {"lat": 29.954651, "lon": -90.075073}, "state": "LA", "id": 4335045, "population": 390144}, {"name": "Wichita", "country": "US", "coord": {"lat": 37.692242, "lon": -97.33754}, "state": "KS", "id": 4281730, "population": 389938}, {"name": "Bakersfield", "country": "US", "coord": {"lat": 35.373291, "lon": -119.018707}, "state": "CA", "id": 5325738, "population": 384145}, {"name": "Anaheim", "country": "US", "coord": {"lat": 33.835289, "lon": -117.914497}, "state": "CA", "id": 5323810, "population": 350365}, {"name": "Hawaii", "country": "US", "coord": {"lat": 20.75028, "lon": -156.500275}, "state": "HI", "id": 5855797, "population": 345064}, {"name": "Honolulu", "country": "US", "coord": {"lat": 21.30694, "lon": -157.858337}, "state": "HI", "id": 5856195, "population": 345064}, {"name": "Santa Ana", "country": "US", "coord": {"lat": 33.745571, "lon": -117.867828}, "state": "CA", "id": 5392900, "population": 332318}, {"name": "Corpus Christi", "country": "US", "coord": {"lat": 27.800579, "lon": -97.396378}, "state": "TX", "id": 4683416, "population": 326586}, {"name": "Lexington", "country": "US", "coord": {"lat": 33.869839, "lon": -83.111816}, "state": "GA", "id": 4205541, "population": 323152}, {"name": "Lexington", "country": "US", "coord": {"lat": 37.988689, "lon": -84.477722}, "state": "KY", "id": 4297983, "population": 323152}, {"name": "Lexington-Fayette", "country": "US", "coord": {"lat": 38.049801, "lon": -84.458549}, "state": "KY", "id": 4297999, "population": 323152}, {"name": "Lexington", "country": "US", "coord": {"lat": 39.184731, "lon": -93.879936}, "state": "MO", "id": 4395035, "population": 323152}, {"name": "Lexington", "country": "US", "coord": {"lat": 33.113178, "lon": -90.053139}, "state": "MS", "id": 4433359, "population": 323152}, {"name": "Lexington", "country": "US", "coord": {"lat": 35.824032, "lon": -80.25338}, "state": "NC", "id": 4475773, "population": 323152}, {"name": "Lexington", "country": "US", "coord": {"lat": 35.01479, "lon": -97.335579}, "state": "OK", "id": 4540932, "population": 323152}, {"name": "Lexington", "country": "US", "coord": {"lat": 33.981541, "lon": -81.236214}, "state": "SC", "id": 4585000, "population": 323152}, {"name": "Lexington", "country": "US", "coord": {"lat": 35.650902, "lon": -88.393379}, "state": "TN", "id": 4636463, "population": 323152}, {"name": "Lexington", "country": "US", "coord": {"lat": 30.4191, "lon": -97.01165}, "state": "TX", "id": 4706068, "population": 323152}, {"name": "Lexington", "country": "US", "coord": {"lat": 37.784019, "lon": -79.442818}, "state": "VA", "id": 4769339, "population": 323152}, {"name": "Lexington", "country": "US", "coord": {"lat": 40.641418, "lon": -88.783401}, "state": "IL", "id": 4899670, "population": 323152}, {"name": "Lexington", "country": "US", "coord": {"lat": 42.447319, "lon": -71.224503}, "state": "MA", "id": 4941935, "population": 323152}, {"name": "Lexington", "country": "US", "coord": {"lat": 43.268082, "lon": -82.530762}, "state": "MI", "id": 4999171, "population": 323152}, {"name": "Lexington", "country": "US", "coord": {"lat": 45.142471, "lon": -93.163277}, "state": "MN", "id": 5034562, "population": 323152}, {"name": "Lexington", "country": "US", "coord": {"lat": 40.780842, "lon": -99.741501}, "state": "NE", "id": 5071934, "population": 323152}, {"name": "Lexington", "country": "US", "coord": {"lat": 40.678669, "lon": -82.58239}, "state": "OH", "id": 5160635, "population": 323152}, {"name": "Cincinnati", "country": "US", "coord": {"lat": 39.161999, "lon": -84.456886}, "state": "OH", "id": 4508722, "population": 303940}, {"name": "Greensboro", "country": "US", "coord": {"lat": 32.704578, "lon": -87.59584}, "state": "AL", "id": 4065282, "population": 296710}, {"name": "Greensboro", "country": "US", "coord": {"lat": 33.57568, "lon": -83.182381}, "state": "GA", "id": 4198204, "population": 296710}, {"name": "Greensboro", "country": "US", "coord": {"lat": 38.973721, "lon": -75.804932}, "state": "MD", "id": 4356953, "population": 296710}, {"name": "Greensboro", "country": "US", "coord": {"lat": 36.072639, "lon": -79.791977}, "state": "NC", "id": 4469146, "population": 296710}, {"name": "Anchorage", "country": "US", "coord": {"lat": 38.266739, "lon": -85.53302}, "state": "KY", "id": 4282497, "population": 288000}, {"name": "Anchorage Municipality", "country": "US", "coord": {"lat": 61.166672, "lon": -149.250565}, "state": "AK", "id": 5879348, "population": 288000}, {"name": "Anchorage", "country": "US", "coord": {"lat": 61.21806, "lon": -149.900284}, "state": "AK", "id": 5879400, "population": 288000}, {"name": "Chula Vista", "country": "US", "coord": {"lat": 32.640049, "lon": -117.084198}, "state": "CA", "id": 5336899, "population": 274492}, {"name": "Toledo", "country": "US", "coord": {"lat": 39.273651, "lon": -88.243652}, "state": "IL", "id": 4251330, "population": 272779}, {"name": "Toledo", "country": "US", "coord": {"lat": 41.995548, "lon": -92.576859}, "state": "IA", "id": 4878703, "population": 272779}, {"name": "Toledo", "country": "US", "coord": {"lat": 41.66394, "lon": -83.555206}, "state": "OH", "id": 5174035, "population": 272779}, {"name": "Toledo", "country": "US", "coord": {"lat": 44.62151, "lon": -123.938454}, "state": "OR", "id": 5757007, "population": 272779}, {"name": "Fort Wayne", "country": "US", "coord": {"lat": 41.1306, "lon": -85.12886}, "state": "IN", "id": 4920423, "population": 270402}, {"name": "Laredo", "country": "US", "coord": {"lat": 27.506411, "lon": -99.507538}, "state": "TX", "id": 4705349, "population": 262491}, {"name": "Jersey City", "country": "US", "coord": {"lat": 40.728161, "lon": -74.077637}, "state": "NJ", "id": 5099836, "population": 262075}, {"name": "Lubbock", "country": "US", "coord": {"lat": 33.577862, "lon": -101.855171}, "state": "TX", "id": 5525577, "population": 258862}, {"name": "Scottsdale", "country": "US", "coord": {"lat": 33.509209, "lon": -111.899033}, "state": "AZ", "id": 5313457, "population": 258069}, {"name": "Dale", "country": "US", "coord": {"lat": 38.168941, "lon": -86.989998}, "state": "IN", "id": 4256426, "population": 252381}, {"name": "Glendale", "country": "US", "coord": {"lat": 38.59589, "lon": -90.37706}, "state": "MO", "id": 4388036, "population": 252381}, {"name": "Glendale", "country": "US", "coord": {"lat": 31.36462, "lon": -89.306168}, "state": "MS", "id": 4427773, "population": 252381}, {"name": "Glendale", "country": "US", "coord": {"lat": 39.270611, "lon": -84.459389}, "state": "OH", "id": 4512773, "population": 252381}, {"name": "Dale City", "country": "US", "coord": {"lat": 38.637058, "lon": -77.311089}, "state": "VA", "id": 4755158, "population": 252381}, {"name": "Glendale", "country": "US", "coord": {"lat": 39.949242, "lon": -80.75425}, "state": "WV", "id": 4807136, "population": 252381}, {"name": "Dale", "country": "US", "coord": {"lat": 40.016708, "lon": -86.400002}, "state": "IN", "id": 4919487, "population": 252381}, {"name": "Glendale", "country": "US", "coord": {"lat": 41.396999, "lon": -81.542343}, "state": "OH", "id": 5155824, "population": 252381}, {"name": "Dale", "country": "US", "coord": {"lat": 40.312851, "lon": -78.90419}, "state": "PA", "id": 5186244, "population": 252381}, {"name": "Glendale", "country": "US", "coord": {"lat": 43.135288, "lon": -87.935638}, "state": "WI", "id": 5254404, "population": 252381}, {"name": "Glendale", "country": "US", "coord": {"lat": 33.538651, "lon": -112.185989}, "state": "AZ", "id": 5295985, "population": 252381}, {"name": "Glendale", "country": "US", "coord": {"lat": 34.142509, "lon": -118.255081}, "state": "CA", "id": 5352423, "population": 252381}, {"name": "Glendale", "country": "US", "coord": {"lat": 39.70499, "lon": -104.933594}, "state": "CO", "id": 5423075, "population": 252381}, {"name": "Arizona", "country": "US", "coord": {"lat": 34.500301, "lon": -111.500977}, "state": "AZ", "id": 5551752, "population": 252381}, {"name": "Glendale", "country": "US", "coord": {"lat": 40.081928, "lon": -105.366379}, "state": "CO", "id": 5577409, "population": 252381}, {"name": "Las Vegas", "country": "US", "coord": {"lat": 35.593929, "lon": -105.2239}, "state": "NM", "id": 5475433, "population": 251974}, {"name": "Las Vegas", "country": "US", "coord": {"lat": 36.174969, "lon": -115.137222}, "state": "NV", "id": 5506956, "population": 251974}, {"name": "North Las Vegas", "country": "US", "coord": {"lat": 36.19886, "lon": -115.1175}, "state": "NV", "id": 5509403, "population": 251974}, {"name": "Vega", "country": "US", "coord": {"lat": 35.242828, "lon": -102.428261}, "state": "TX", "id": 5532945, "population": 251974}, {"name": "Winston-Salem", "country": "US", "coord": {"lat": 36.099861, "lon": -80.244217}, "state": "NC", "id": 4499612, "population": 247945}, {"name": "Chesapeake", "country": "US", "coord": {"lat": 36.819038, "lon": -76.27494}, "state": "VA", "id": 4752186, "population": 244835}, {"name": "Chesapeake", "country": "US", "coord": {"lat": 38.223438, "lon": -81.536232}, "state": "WV", "id": 4801966, "population": 244835}, {"name": "Norfolk", "country": "US", "coord": {"lat": 36.846809, "lon": -76.285217}, "state": "VA", "id": 4776222, "population": 242742}, {"name": "Norfolk", "country": "US", "coord": {"lat": 42.119541, "lon": -71.325058}, "state": "MA", "id": 4945453, "population": 242742}, {"name": "Norfolk", "country": "US", "coord": {"lat": 42.028339, "lon": -97.417}, "state": "NE", "id": 5073965, "population": 242742}, {"name": "Norfolk", "country": "US", "coord": {"lat": 44.800892, "lon": -74.991028}, "state": "NY", "id": 5128862, "population": 242742}, {"name": "Hialeah", "country": "US", "coord": {"lat": 25.857599, "lon": -80.278107}, "state": "FL", "id": 4158476, "population": 233339}, {"name": "Boise City", "country": "US", "coord": {"lat": 36.729469, "lon": -102.513237}, "state": "OK", "id": 5515613, "population": 228959}, {"name": "Boise", "country": "US", "coord": {"lat": 43.613499, "lon": -116.203453}, "state": "ID", "id": 5586437, "population": 228959}, {"name": "Spokane", "country": "US", "coord": {"lat": 47.65966, "lon": -117.429077}, "state": "WA", "id": 5811696, "population": 222081}, {"name": "Baton Rouge", "country": "US", "coord": {"lat": 30.45075, "lon": -91.154549}, "state": "LA", "id": 4315588, "population": 220236}, {"name": "Tacoma", "country": "US", "coord": {"lat": 47.25288, "lon": -122.44429}, "state": "WA", "id": 5812944, "population": 217827}, {"name": "San Bernardino", "country": "US", "coord": {"lat": 34.108341, "lon": -117.289772}, "state": "CA", "id": 5391710, "population": 215784}, {"name": "Moreno Valley", "country": "US", "coord": {"lat": 33.937519, "lon": -117.230591}, "state": "CA", "id": 5374732, "population": 213055}, {"name": "Santa Clarita", "country": "US", "coord": {"lat": 34.391659, "lon": -118.542587}, "state": "CA", "id": 5393049, "population": 212979}, {"name": "Fayetteville", "country": "US", "coord": {"lat": 33.145672, "lon": -86.405807}, "state": "AL", "id": 4061602, "population": 211657}, {"name": "Fayetteville", "country": "US", "coord": {"lat": 36.06258, "lon": -94.157433}, "state": "AR", "id": 4110486, "population": 211657}, {"name": "Fayetteville", "country": "US", "coord": {"lat": 33.44873, "lon": -84.454933}, "state": "GA", "id": 4194474, "population": 211657}, {"name": "Fayetteville", "country": "US", "coord": {"lat": 35.052662, "lon": -78.878357}, "state": "NC", "id": 4466033, "population": 211657}, {"name": "Fayetteville", "country": "US", "coord": {"lat": 39.911201, "lon": -77.549988}, "state": "PA", "id": 4557920, "population": 211657}, {"name": "Fayetteville", "country": "US", "coord": {"lat": 35.152031, "lon": -86.570549}, "state": "TN", "id": 4621915, "population": 211657}, {"name": "Fayetteville", "country": "US", "coord": {"lat": 38.052891, "lon": -81.103989}, "state": "WV", "id": 4805686, "population": 211657}, {"name": "Fayetteville", "country": "US", "coord": {"lat": 43.029789, "lon": -76.004356}, "state": "NY", "id": 5116968, "population": 211657}, {"name": "Birmingham", "country": "US", "coord": {"lat": 33.52066, "lon": -86.80249}, "state": "AL", "id": 4049979, "population": 209403}, {"name": "Birmingham", "country": "US", "coord": {"lat": 42.5467, "lon": -83.211319}, "state": "MI", "id": 4986172, "population": 209403}, {"name": "Oxnard", "country": "US", "coord": {"lat": 34.197498, "lon": -119.177048}, "state": "CA", "id": 5380184, "population": 208881}, {"name": "Grand Rapids", "country": "US", "coord": {"lat": 42.96336, "lon": -85.668091}, "state": "MI", "id": 4994358, "population": 201013}, {"name": "Grand Rapids", "country": "US", "coord": {"lat": 47.237171, "lon": -93.530212}, "state": "MN", "id": 5028537, "population": 201013}, {"name": "Salt Lake City", "country": "US", "coord": {"lat": 40.76078, "lon": -111.891052}, "state": "UT", "id": 5780993, "population": 200567}, {"name": "Frisco City", "country": "US", "coord": {"lat": 31.4335, "lon": -87.401382}, "state": "AL", "id": 4063475, "population": 200490}, {"name": "Frisco", "country": "US", "coord": {"lat": 33.150669, "lon": -96.823608}, "state": "TX", "id": 4692559, "population": 200490}, {"name": "Frisco", "country": "US", "coord": {"lat": 39.574429, "lon": -106.097519}, "state": "CO", "id": 5422503, "population": 200490}, {"name": "Yonkers", "country": "US", "coord": {"lat": 40.93121, "lon": -73.89875}, "state": "NY", "id": 5145215, "population": 200370}, {"name": "Huntington", "country": "US", "coord": {"lat": 31.277691, "lon": -94.576591}, "state": "TX", "id": 4699533, "population": 199223}, {"name": "Huntington", "country": "US", "coord": {"lat": 38.792339, "lon": -77.070808}, "state": "VA", "id": 4765392, "population": 199223}, {"name": "Huntington", "country": "US", "coord": {"lat": 38.41925, "lon": -82.445152}, "state": "WV", "id": 4809537, "population": 199223}, {"name": "Huntington", "country": "US", "coord": {"lat": 40.883099, "lon": -85.497482}, "state": "IN", "id": 4921725, "population": 199223}, {"name": "Huntington", "country": "US", "coord": {"lat": 40.868149, "lon": -73.425682}, "state": "NY", "id": 5121636, "population": 199223}, {"name": "Huntington Beach", "country": "US", "coord": {"lat": 33.660301, "lon": -117.999229}, "state": "CA", "id": 5358705, "population": 199223}, {"name": "Huntington", "country": "US", "coord": {"lat": 39.326641, "lon": -110.964607}, "state": "UT", "id": 5540810, "population": 199223}, {"name": "McKinney", "country": "US", "coord": {"lat": 33.19762, "lon": -96.615273}, "state": "TX", "id": 4710178, "population": 199177}, {"name": "Montgomery", "country": "US", "coord": {"lat": 32.36681, "lon": -86.299973}, "state": "AL", "id": 4076784, "population": 198525}, {"name": "Montgomery", "country": "US", "coord": {"lat": 31.940491, "lon": -81.122047}, "state": "GA", "id": 4209934, "population": 198525}, {"name": "Montgomery City", "country": "US", "coord": {"lat": 38.977539, "lon": -91.504883}, "state": "MO", "id": 4398894, "population": 198525}, {"name": "Montgomery", "country": "US", "coord": {"lat": 39.228111, "lon": -84.354111}, "state": "OH", "id": 4518597, "population": 198525}, {"name": "Montgomery", "country": "US", "coord": {"lat": 38.180382, "lon": -81.328453}, "state": "WV", "id": 4815241, "population": 198525}, {"name": "Montgomery", "country": "US", "coord": {"lat": 41.730579, "lon": -88.345901}, "state": "IL", "id": 4902559, "population": 198525}, {"name": "Montgomery", "country": "US", "coord": {"lat": 44.43885, "lon": -93.581337}, "state": "MN", "id": 5038035, "population": 198525}, {"name": "Montgomery", "country": "US", "coord": {"lat": 41.527592, "lon": -74.236816}, "state": "NY", "id": 5127353, "population": 198525}, {"name": "Montgomery", "country": "US", "coord": {"lat": 41.170361, "lon": -76.876907}, "state": "PA", "id": 5201752, "population": 198525}, {"name": "Richmond County", "country": "US", "coord": {"lat": 33.36681, "lon": -82.099838}, "state": "GA", "id": 4218744, "population": 197888}, {"name": "Richmond County", "country": "US", "coord": {"lat": 35.00293, "lon": -79.752548}, "state": "NC", "id": 4487947, "population": 197888}, {"name": "Tempe", "country": "US", "coord": {"lat": 33.414768, "lon": -111.909309}, "state": "AZ", "id": 5317058, "population": 195805}, {"name": "Overland Park", "country": "US", "coord": {"lat": 38.982231, "lon": -94.670792}, "state": "KS", "id": 4276873, "population": 195494}, {"name": "Overland", "country": "US", "coord": {"lat": 38.70116, "lon": -90.362343}, "state": "MO", "id": 4402178, "population": 195494}, {"name": "Grand Prairie", "country": "US", "coord": {"lat": 32.74596, "lon": -96.99778}, "state": "TX", "id": 4694482, "population": 194543}, {"name": "Tallahassee", "country": "US", "coord": {"lat": 30.438259, "lon": -84.280731}, "state": "FL", "id": 4174715, "population": 194500}, {"name": "Cape Coral", "country": "US", "coord": {"lat": 26.562851, "lon": -81.949532}, "state": "FL", "id": 4149962, "population": 194495}, {"name": "Shreveport", "country": "US", "coord": {"lat": 32.52515, "lon": -93.750183}, "state": "LA", "id": 4341513, "population": 187112}, {"name": "Worcester", "country": "US", "coord": {"lat": 42.262589, "lon": -71.802292}, "state": "MA", "id": 4956184, "population": 185428}, {"name": "Worcester", "country": "US", "coord": {"lat": 42.591461, "lon": -74.750427}, "state": "NY", "id": 5145094, "population": 185428}, {"name": "Vancouver", "country": "US", "coord": {"lat": 45.638729, "lon": -122.661491}, "state": "WA", "id": 5814616, "population": 184463}, {"name": "Sioux Falls", "country": "US", "coord": {"lat": 43.549969, "lon": -96.700333}, "state": "SD", "id": 5231851, "population": 183793}, {"name": "Fort Lauderdale", "country": "US", "coord": {"lat": 26.122311, "lon": -80.143379}, "state": "FL", "id": 4155966, "population": 182437}, {"name": "Newport News", "country": "US", "coord": {"lat": 36.97876, "lon": -76.428001}, "state": "VA", "id": 4776024, "population": 179225}, {"name": "Rancho Cucamonga", "country": "US", "coord": {"lat": 34.1064, "lon": -117.593109}, "state": "CA", "id": 5385955, "population": 177603}, {"name": "Oceanside", "country": "US", "coord": {"lat": 40.63871, "lon": -73.640129}, "state": "NY", "id": 5129603, "population": 175742}, {"name": "Oceanside", "country": "US", "coord": {"lat": 33.195869, "lon": -117.379478}, "state": "CA", "id": 5378771, "population": 175742}, {"name": "Pembroke Pines", "country": "US", "coord": {"lat": 26.003151, "lon": -80.223938}, "state": "FL", "id": 4168139, "population": 173591}, {"name": "Eugene", "country": "US", "coord": {"lat": 43.292252, "lon": -84.706947}, "state": "MI", "id": 4992263, "population": 172622}, {"name": "Eugene", "country": "US", "coord": {"lat": 44.052071, "lon": -123.086746}, "state": "OR", "id": 5725846, "population": 172622}, {"name": "Garden Grove", "country": "US", "coord": {"lat": 33.773911, "lon": -117.941452}, "state": "CA", "id": 5351515, "population": 171644}, {"name": "Fort Collins", "country": "US", "coord": {"lat": 40.585258, "lon": -105.084419}, "state": "CO", "id": 5577147, "population": 170243}, {"name": "Corona", "country": "US", "coord": {"lat": 33.87529, "lon": -117.566437}, "state": "CA", "id": 5339631, "population": 169868}, {"name": "Alexandria", "country": "US", "coord": {"lat": 38.959511, "lon": -84.387993}, "state": "KY", "id": 4282342, "population": 159428}, {"name": "Alexandria", "country": "US", "coord": {"lat": 31.311291, "lon": -92.445137}, "state": "LA", "id": 4314550, "population": 159428}, {"name": "Alexandria", "country": "US", "coord": {"lat": 38.80484, "lon": -77.046921}, "state": "VA", "id": 4744091, "population": 159428}, {"name": "Alexandria", "country": "US", "coord": {"lat": 33.773991, "lon": -85.885521}, "state": "AL", "id": 4829861, "population": 159428}, {"name": "Alexandria", "country": "US", "coord": {"lat": 40.262821, "lon": -85.675812}, "state": "IN", "id": 4917537, "population": 159428}, {"name": "Alexandria", "country": "US", "coord": {"lat": 45.885239, "lon": -95.377541}, "state": "MN", "id": 5016108, "population": 159428}, {"name": "Alexandria", "country": "US", "coord": {"lat": 43.611462, "lon": -71.792862}, "state": "NH", "id": 5082573, "population": 159428}, {"name": "Alexandria", "country": "US", "coord": {"lat": 43.653591, "lon": -97.782852}, "state": "SD", "id": 5225919, "population": 159428}, {"name": "Salinas", "country": "US", "coord": {"lat": 36.677738, "lon": -121.655502}, "state": "CA", "id": 5391295, "population": 155465}, {"name": "Palmdale", "country": "US", "coord": {"lat": 40.297871, "lon": -76.618584}, "state": "PA", "id": 5204944, "population": 155079}, {"name": "Palmdale", "country": "US", "coord": {"lat": 34.57943, "lon": -118.116463}, "state": "CA", "id": 5380698, "population": 155079}, {"name": "Bibb County", "country": "US", "coord": {"lat": 32.80014, "lon": -83.666573}, "state": "GA", "id": 4182755, "population": 153159}, {"name": "Kansas City", "country": "US", "coord": {"lat": 39.11417, "lon": -94.627457}, "state": "KS", "id": 4273837, "population": 152960}, {"name": "Kansas City", "country": "US", "coord": {"lat": 39.099731, "lon": -94.578568}, "state": "MO", "id": 4393217, "population": 152960}, {"name": "Killeen", "country": "US", "coord": {"lat": 31.117121, "lon": -97.727798}, "state": "TX", "id": 4703223, "population": 151666}, {"name": "Escondido", "country": "US", "coord": {"lat": 33.119209, "lon": -117.086418}, "state": "CA", "id": 5346827, "population": 151625}, {"name": "Naperville", "country": "US", "coord": {"lat": 41.785858, "lon": -88.147293}, "state": "IL", "id": 4903279, "population": 148449}, {"name": "Bellevue", "country": "US", "coord": {"lat": 39.106449, "lon": -84.478828}, "state": "KY", "id": 4283845, "population": 148164}, {"name": "Belle", "country": "US", "coord": {"lat": 38.285881, "lon": -91.720444}, "state": "MO", "id": 4376432, "population": 148164}, {"name": "Belle", "country": "US", "coord": {"lat": 38.232052, "lon": -81.537621}, "state": "WV", "id": 4798559, "population": 148164}, {"name": "Bellevue", "country": "US", "coord": {"lat": 42.258629, "lon": -90.422913}, "state": "IA", "id": 4848124, "population": 148164}, {"name": "Bellevue", "country": "US", "coord": {"lat": 40.684479, "lon": -89.680099}, "state": "IL", "id": 4884416, "population": 148164}, {"name": "Bellevue", "country": "US", "coord": {"lat": 42.443371, "lon": -85.018051}, "state": "MI", "id": 4985607, "population": 148164}, {"name": "Bellevue", "country": "US", "coord": {"lat": 41.136669, "lon": -95.890839}, "state": "NE", "id": 5063805, "population": 148164}, {"name": "Bellevue", "country": "US", "coord": {"lat": 41.273659, "lon": -82.841583}, "state": "OH", "id": 5146978, "population": 148164}, {"name": "Bellevue", "country": "US", "coord": {"lat": 40.493961, "lon": -80.05172}, "state": "PA", "id": 5179811, "population": 148164}, {"name": "Bellevue", "country": "US", "coord": {"lat": 44.44416, "lon": -87.920097}, "state": "WI", "id": 5245359, "population": 148164}, {"name": "Bell", "country": "US", "coord": {"lat": 33.977509, "lon": -118.187019}, "state": "CA", "id": 5327298, "population": 148164}, {"name": "Bellevue", "country": "US", "coord": {"lat": 43.46352, "lon": -114.260597}, "state": "ID", "id": 5585265, "population": 148164}, {"name": "Bellevue", "country": "US", "coord": {"lat": 47.610378, "lon": -122.200684}, "state": "WA", "id": 5786882, "population": 148164}, {"name": "Midland City", "country": "US", "coord": {"lat": 31.319059, "lon": -85.49382}, "state": "AL", "id": 4075984, "population": 146038}, {"name": "Paterson", "country": "US", "coord": {"lat": 40.916771, "lon": -74.171806}, "state": "NJ", "id": 5102466, "population": 145233}, {"name": "Torrance", "country": "US", "coord": {"lat": 33.83585, "lon": -118.34063}, "state": "CA", "id": 5403022, "population": 143592}, {"name": "McAllen", "country": "US", "coord": {"lat": 26.203409, "lon": -98.230011}, "state": "TX", "id": 4709796, "population": 143268}, {"name": "Surprise", "country": "US", "coord": {"lat": 33.630589, "lon": -112.333221}, "state": "AZ", "id": 5316428, "population": 141664}, {"name": "Miramar", "country": "US", "coord": {"lat": 25.98731, "lon": -80.232269}, "state": "FL", "id": 4164601, "population": 141191}, {"name": "Olathe", "country": "US", "coord": {"lat": 38.881401, "lon": -94.81913}, "state": "KS", "id": 4276614, "population": 140545}, {"name": "Olathe", "country": "US", "coord": {"lat": 38.604988, "lon": -107.982292}, "state": "CO", "id": 5433349, "population": 140545}, {"name": "Waco", "country": "US", "coord": {"lat": 31.54933, "lon": -97.146667}, "state": "TX", "id": 4739526, "population": 139236}, {"name": "West Valley City", "country": "US", "coord": {"lat": 40.691608, "lon": -112.001053}, "state": "UT", "id": 5784607, "population": 135248}, {"name": "West Valley", "country": "US", "coord": {"lat": 46.592072, "lon": -120.605072}, "state": "WA", "id": 5815605, "population": 135248}, {"name": "Visalia", "country": "US", "coord": {"lat": 36.330231, "lon": -119.292061}, "state": "CA", "id": 5406567, "population": 134605}, {"name": "Warren", "country": "US", "coord": {"lat": 33.61261, "lon": -92.064583}, "state": "AR", "id": 4135349, "population": 133943}, {"name": "Warren", "country": "US", "coord": {"lat": 42.496399, "lon": -89.989571}, "state": "IL", "id": 4915497, "population": 133943}, {"name": "Warren", "country": "US", "coord": {"lat": 40.682819, "lon": -85.4272}, "state": "IN", "id": 4927844, "population": 133943}, {"name": "Warren", "country": "US", "coord": {"lat": 42.212589, "lon": -72.191193}, "state": "MA", "id": 4954511, "population": 133943}, {"name": "Warren", "country": "US", "coord": {"lat": 44.120361, "lon": -69.240051}, "state": "ME", "id": 4982137, "population": 133943}, {"name": "Warren", "country": "US", "coord": {"lat": 42.477539, "lon": -83.027702}, "state": "MI", "id": 5014051, "population": 133943}, {"name": "Warren", "country": "US", "coord": {"lat": 48.19664, "lon": -96.772842}, "state": "MN", "id": 5051875, "population": 133943}, {"name": "Warren", "country": "US", "coord": {"lat": 43.923119, "lon": -71.892029}, "state": "NH", "id": 5094264, "population": 133943}, {"name": "Warren", "country": "US", "coord": {"lat": 41.23756, "lon": -80.81842}, "state": "OH", "id": 5175865, "population": 133943}, {"name": "Warren", "country": "US", "coord": {"lat": 41.843948, "lon": -79.145042}, "state": "PA", "id": 5218023, "population": 133943}, {"name": "Warren", "country": "US", "coord": {"lat": 41.730381, "lon": -71.282547}, "state": "RI", "id": 5225502, "population": 133943}, {"name": "Warren", "country": "US", "coord": {"lat": 45.819, "lon": -122.848991}, "state": "OR", "id": 5759261, "population": 133943}, {"name": "Coral Springs", "country": "US", "coord": {"lat": 26.271191, "lon": -80.270599}, "state": "FL", "id": 4151909, "population": 133759}, {"name": "Round Rock", "country": "US", "coord": {"lat": 30.508261, "lon": -97.678902}, "state": "TX", "id": 4724129, "population": 133372}, {"name": "Sterling Heights", "country": "US", "coord": {"lat": 42.580311, "lon": -83.030197}, "state": "MI", "id": 5011148, "population": 132438}, {"name": "Elizabeth City", "country": "US", "coord": {"lat": 36.294601, "lon": -76.251053}, "state": "NC", "id": 4465088, "population": 129216}, {"name": "Clarke County", "country": "US", "coord": {"lat": 33.950119, "lon": -83.383209}, "state": "GA", "id": 4188191, "population": 126913}, {"name": "Clarke County", "country": "US", "coord": {"lat": 39.116772, "lon": -77.966393}, "state": "VA", "id": 4752978, "population": 126913}, {"name": "Thousand Oaks", "country": "US", "coord": {"lat": 34.170559, "lon": -118.837593}, "state": "CA", "id": 5402405, "population": 126813}, {"name": "Simi Valley", "country": "US", "coord": {"lat": 34.269451, "lon": -118.781479}, "state": "CA", "id": 5396003, "population": 125613}, {"name": "Fargo", "country": "US", "coord": {"lat": 46.87719, "lon": -96.789803}, "state": "ND", "id": 5059163, "population": 124662}, {"name": "Abilene", "country": "US", "coord": {"lat": 38.917221, "lon": -97.213913}, "state": "KS", "id": 4267354, "population": 123420}, {"name": "Abilene", "country": "US", "coord": {"lat": 32.448738, "lon": -99.733139}, "state": "TX", "id": 4669635, "population": 123420}, {"name": "Odessa", "country": "US", "coord": {"lat": 28.193899, "lon": -82.591759}, "state": "FL", "id": 4166787, "population": 123334}, {"name": "Odessa", "country": "US", "coord": {"lat": 38.999168, "lon": -93.95356}, "state": "MO", "id": 4401659, "population": 123334}, {"name": "Odessa", "country": "US", "coord": {"lat": 31.84568, "lon": -102.367638}, "state": "TX", "id": 5527554, "population": 123334}, {"name": "Pearland", "country": "US", "coord": {"lat": 29.56357, "lon": -95.286049}, "state": "TX", "id": 4718097, "population": 122460}, {"name": "Victorville", "country": "US", "coord": {"lat": 34.53611, "lon": -117.291161}, "state": "CA", "id": 5406222, "population": 122385}, {"name": "Vallejo", "country": "US", "coord": {"lat": 38.104092, "lon": -122.256638}, "state": "CA", "id": 5405380, "population": 121692}, {"name": "Richardson", "country": "US", "coord": {"lat": 32.948181, "lon": -96.729721}, "state": "TX", "id": 4722625, "population": 121323}, {"name": "Arvada", "country": "US", "coord": {"lat": 39.802761, "lon": -105.087479}, "state": "CO", "id": 5412199, "population": 121272}, {"name": "Ann Arbor", "country": "US", "coord": {"lat": 42.277561, "lon": -83.740883}, "state": "MI", "id": 4984247, "population": 119980}, {"name": "Cambridge City", "country": "US", "coord": {"lat": 39.81255, "lon": -85.171631}, "state": "IN", "id": 4255339, "population": 118927}, {"name": "Sugar Land", "country": "US", "coord": {"lat": 29.61968, "lon": -95.634949}, "state": "TX", "id": 4734825, "population": 118488}, {"name": "Evansville", "country": "US", "coord": {"lat": 37.974758, "lon": -87.555847}, "state": "IN", "id": 4257227, "population": 117979}, {"name": "Evansville", "country": "US", "coord": {"lat": 42.780281, "lon": -89.299278}, "state": "WI", "id": 5252182, "population": 117979}, {"name": "Evansville", "country": "US", "coord": {"lat": 42.85997, "lon": -106.268356}, "state": "WY", "id": 5824810, "population": 117979}, {"name": "College Station", "country": "US", "coord": {"lat": 30.627979, "lon": -96.334412}, "state": "TX", "id": 4682464, "population": 117911}, {"name": "Independence", "country": "US", "coord": {"lat": 37.224239, "lon": -95.708313}, "state": "KS", "id": 4273359, "population": 116672}, {"name": "Independence", "country": "US", "coord": {"lat": 38.943119, "lon": -84.544113}, "state": "KY", "id": 4295776, "population": 116672}, {"name": "Independence", "country": "US", "coord": {"lat": 30.635469, "lon": -90.500923}, "state": "LA", "id": 4328319, "population": 116672}, {"name": "Independence", "country": "US", "coord": {"lat": 39.091122, "lon": -94.415512}, "state": "MO", "id": 4391812, "population": 116672}, {"name": "Independence", "country": "US", "coord": {"lat": 36.622349, "lon": -81.150917}, "state": "VA", "id": 4829280, "population": 116672}, {"name": "Independence", "country": "US", "coord": {"lat": 42.468601, "lon": -91.889343}, "state": "IA", "id": 4861620, "population": 116672}, {"name": "Independence", "country": "US", "coord": {"lat": 45.025242, "lon": -93.707458}, "state": "MN", "id": 5031190, "population": 116672}, {"name": "Independence", "country": "US", "coord": {"lat": 41.36866, "lon": -81.637901}, "state": "OH", "id": 5158404, "population": 116672}, {"name": "Independence", "country": "US", "coord": {"lat": 40.572289, "lon": -80.309227}, "state": "PA", "id": 5194748, "population": 116672}, {"name": "Independence", "country": "US", "coord": {"lat": 44.356911, "lon": -91.420433}, "state": "WI", "id": 5257353, "population": 116672}, {"name": "Independence", "country": "US", "coord": {"lat": 45.21244, "lon": -110.2463}, "state": "MT", "id": 5658648, "population": 116672}, {"name": "Independence", "country": "US", "coord": {"lat": 44.851231, "lon": -123.186768}, "state": "OR", "id": 5732763, "population": 116672}, {"name": "Provo", "country": "US", "coord": {"lat": 34.037609, "lon": -94.107697}, "state": "AR", "id": 4047656, "population": 116618}, {"name": "Provo", "country": "US", "coord": {"lat": 40.233841, "lon": -111.658531}, "state": "UT", "id": 5780026, "population": 116618}, {"name": "West Jordan", "country": "US", "coord": {"lat": 40.609669, "lon": -111.939102}, "state": "UT", "id": 5784549, "population": 116480}, {"name": "Murrieta", "country": "US", "coord": {"lat": 33.553909, "lon": -117.213921}, "state": "CA", "id": 5375911, "population": 116223}, {"name": "Palm Bay", "country": "US", "coord": {"lat": 28.03446, "lon": -80.588661}, "state": "FL", "id": 4167499, "population": 115552}, {"name": "North Charleston", "country": "US", "coord": {"lat": 32.888561, "lon": -80.007507}, "state": "SC", "id": 4589387, "population": 115382}, {"name": "Temecula", "country": "US", "coord": {"lat": 33.493641, "lon": -117.148361}, "state": "CA", "id": 5401395, "population": 114761}, {"name": "Clovis", "country": "US", "coord": {"lat": 36.82523, "lon": -119.702919}, "state": "CA", "id": 5338122, "population": 114584}, {"name": "Clovis", "country": "US", "coord": {"lat": 34.4048, "lon": -103.205231}, "state": "NM", "id": 5462393, "population": 114584}, {"name": "Costa Mesa", "country": "US", "coord": {"lat": 33.641129, "lon": -117.918671}, "state": "CA", "id": 5339840, "population": 113003}, {"name": "High Point", "country": "US", "coord": {"lat": 26.46591, "lon": -80.128098}, "state": "", "id": 4158591, "population": 112791}, {"name": "High Point", "country": "US", "coord": {"lat": 35.955688, "lon": -80.005318}, "state": "NC", "id": 4471025, "population": 112791}, {"name": "High Point", "country": "US", "coord": {"lat": 28.546869, "lon": -82.524681}, "state": "FL", "id": 7172786, "population": 112791}, {"name": "Pueblo", "country": "US", "coord": {"lat": 38.254452, "lon": -104.609138}, "state": "CO", "id": 5435464, "population": 112361}, {"name": "Pompano Beach", "country": "US", "coord": {"lat": 26.23786, "lon": -80.124771}, "state": "FL", "id": 4169014, "population": 112118}, {"name": "West Palm Beach", "country": "US", "coord": {"lat": 26.71534, "lon": -80.053368}, "state": "FL", "id": 4177887, "population": 111955}, {"name": "Antioch", "country": "US", "coord": {"lat": 32.31292, "lon": -97.198067}, "state": "TX", "id": 4670957, "population": 111502}, {"name": "Antioch", "country": "US", "coord": {"lat": 42.477242, "lon": -88.095642}, "state": "IL", "id": 4883393, "population": 111502}, {"name": "Antioch", "country": "US", "coord": {"lat": 38.004921, "lon": -121.805794}, "state": "CA", "id": 5324200, "population": 111502}, {"name": "Centennial", "country": "US", "coord": {"lat": 33.58596, "lon": -83.612389}, "state": "GA", "id": 4186974, "population": 110937}, {"name": "Centennial", "country": "US", "coord": {"lat": 39.579159, "lon": -104.876923}, "state": "CO", "id": 5416541, "population": 110937}, {"name": "Centennial", "country": "US", "coord": {"lat": 41.298309, "lon": -106.141678}, "state": "WY", "id": 5820898, "population": 110937}, {"name": "Richmond", "country": "US", "coord": {"lat": 39.828941, "lon": -84.890244}, "state": "IN", "id": 4263681, "population": 110567}, {"name": "Richmond", "country": "US", "coord": {"lat": 37.74786, "lon": -84.294647}, "state": "KY", "id": 4305974, "population": 110567}, {"name": "Richmond", "country": "US", "coord": {"lat": 39.278622, "lon": -93.976891}, "state": "MO", "id": 4405588, "population": 110567}, {"name": "Richmond", "country": "US", "coord": {"lat": 29.58218, "lon": -95.76078}, "state": "TX", "id": 4722684, "population": 110567}, {"name": "Richmond", "country": "US", "coord": {"lat": 37.553761, "lon": -77.460258}, "state": "VA", "id": 4781708, "population": 110567}, {"name": "Richmond", "country": "US", "coord": {"lat": 42.475849, "lon": -88.305931}, "state": "IL", "id": 4907504, "population": 110567}, {"name": "Richmond", "country": "US", "coord": {"lat": 40.36087, "lon": -89.36898}, "state": "IL", "id": 4907505, "population": 110567}, {"name": "Richmond", "country": "US", "coord": {"lat": 42.373138, "lon": -73.367607}, "state": "MA", "id": 4948667, "population": 110567}, {"name": "Richmond", "country": "US", "coord": {"lat": 44.087299, "lon": -69.798927}, "state": "ME", "id": 4976528, "population": 110567}, {"name": "Richmond", "country": "US", "coord": {"lat": 42.8092, "lon": -82.75576}, "state": "MI", "id": 5007141, "population": 110567}, {"name": "Richmond", "country": "US", "coord": {"lat": 45.454128, "lon": -94.518333}, "state": "MN", "id": 5043204, "population": 110567}, {"name": "Richmond", "country": "US", "coord": {"lat": 42.75481, "lon": -72.271751}, "state": "NH", "id": 5091729, "population": 110567}, {"name": "Richmond", "country": "US", "coord": {"lat": 37.93576, "lon": -122.347748}, "state": "CA", "id": 5387428, "population": 110567}, {"name": "Richmond", "country": "US", "coord": {"lat": 41.92271, "lon": -111.81356}, "state": "UT", "id": 5780388, "population": 110567}, {"name": "Peoria", "country": "US", "coord": {"lat": 40.693649, "lon": -89.588989}, "state": "IL", "id": 4905687, "population": 110417}, {"name": "Peoria", "country": "US", "coord": {"lat": 33.580601, "lon": -112.237381}, "state": "AZ", "id": 5308480, "population": 110417}, {"name": "Broken Arrow", "country": "US", "coord": {"lat": 36.052601, "lon": -95.790817}, "state": "OK", "id": 4531405, "population": 110198}, {"name": "Miami Gardens", "country": "US", "coord": {"lat": 25.979811, "lon": -80.202553}, "state": "FL", "id": 4164166, "population": 110001}, {"name": "Miami Gardens", "country": "US", "coord": {"lat": 25.942039, "lon": -80.245598}, "state": "FL", "id": 4164167, "population": 110001}, {"name": "Jurupa Valley", "country": "US", "coord": {"lat": 33.992512, "lon": -117.516441}, "state": "CA", "id": 5373492, "population": 109527}, {"name": "Sandy Springs", "country": "US", "coord": {"lat": 33.924271, "lon": -84.37854}, "state": "GA", "id": 4221333, "population": 109452}, {"name": "Sandy Springs", "country": "US", "coord": {"lat": 35.332661, "lon": -77.944153}, "state": "NC", "id": 4490315, "population": 109452}, {"name": "Lewisville", "country": "US", "coord": {"lat": 33.358459, "lon": -93.577682}, "state": "AR", "id": 4118755, "population": 109212}, {"name": "Lewisville", "country": "US", "coord": {"lat": 36.09708, "lon": -80.41922}, "state": "NC", "id": 4475767, "population": 109212}, {"name": "Lewisville", "country": "US", "coord": {"lat": 33.04623, "lon": -96.994171}, "state": "TX", "id": 4706057, "population": 109212}, {"name": "Lewisville", "country": "US", "coord": {"lat": 45.809841, "lon": -122.523148}, "state": "WA", "id": 5800840, "population": 109212}, {"name": "Aventura", "country": "US", "coord": {"lat": 25.95648, "lon": -80.139214}, "state": "FL", "id": 4146429, "population": 109106}, {"name": "Ventura", "country": "US", "coord": {"lat": 34.278339, "lon": -119.293167}, "state": "CA", "id": 5405878, "population": 109106}, {"name": "League City", "country": "US", "coord": {"lat": 29.50745, "lon": -95.094933}, "state": "TX", "id": 4705692, "population": 107536}, {"name": "Santa Maria", "country": "US", "coord": {"lat": 34.95303, "lon": -120.435722}, "state": "CA", "id": 5393180, "population": 107263}, {"name": "Davie", "country": "US", "coord": {"lat": 26.06287, "lon": -80.233101}, "state": "FL", "id": 4152820, "population": 106306}, {"name": "Daly City", "country": "US", "coord": {"lat": 37.705769, "lon": -122.461922}, "state": "CA", "id": 5341430, "population": 106280}, {"name": "Covina", "country": "US", "coord": {"lat": 34.090012, "lon": -117.890343}, "state": "CA", "id": 5340175, "population": 105101}, {"name": "West Covina", "country": "US", "coord": {"lat": 34.068619, "lon": -117.93895}, "state": "CA", "id": 5407933, "population": 105101}, {"name": "Sparks", "country": "US", "coord": {"lat": 31.166861, "lon": -83.437378}, "state": "GA", "id": 4223871, "population": 105006}, {"name": "Sparks", "country": "US", "coord": {"lat": 33.087929, "lon": -82.73764}, "state": "GA", "id": 4223874, "population": 105006}, {"name": "Nevada", "country": "US", "coord": {"lat": 37.839211, "lon": -94.354668}, "state": "MO", "id": 4400203, "population": 105006}, {"name": "Ada", "country": "US", "coord": {"lat": 34.774529, "lon": -96.678337}, "state": "OK", "id": 4529096, "population": 105006}, {"name": "Sparks", "country": "US", "coord": {"lat": 30.92852, "lon": -97.359718}, "state": "TX", "id": 4733485, "population": 105006}, {"name": "Nevada", "country": "US", "coord": {"lat": 42.02277, "lon": -93.452431}, "state": "IA", "id": 4868620, "population": 105006}, {"name": "Ada", "country": "US", "coord": {"lat": 47.29969, "lon": -96.51535}, "state": "MN", "id": 5015844, "population": 105006}, {"name": "Ada", "country": "US", "coord": {"lat": 40.769501, "lon": -83.822708}, "state": "OH", "id": 5145374, "population": 105006}, {"name": "Parks", "country": "US", "coord": {"lat": 35.260571, "lon": -111.948769}, "state": "AZ", "id": 5308164, "population": 105006}, {"name": "Nevada", "country": "US", "coord": {"lat": 39.25021, "lon": -116.75119}, "state": "NV", "id": 5509151, "population": 105006}, {"name": "Sparks", "country": "US", "coord": {"lat": 39.534908, "lon": -119.752693}, "state": "NV", "id": 5512862, "population": 105006}, {"name": "Sparks", "country": "US", "coord": {"lat": 31.672609, "lon": -106.2397}, "state": "TX", "id": 5531548, "population": 105006}, {"name": "Wichita Falls", "country": "US", "coord": {"lat": 33.913712, "lon": -98.493393}, "state": "TX", "id": 4741752, "population": 104683}, {"name": "Green Bay", "country": "US", "coord": {"lat": 33.014889, "lon": -79.755363}, "state": "SC", "id": 4580391, "population": 104578}, {"name": "Green Bay", "country": "US", "coord": {"lat": 44.519161, "lon": -88.019829}, "state": "WI", "id": 5254962, "population": 104578}, {"name": "San Mateo", "country": "US", "coord": {"lat": 37.562988, "lon": -122.325531}, "state": "CA", "id": 5392423, "population": 104430}, {"name": "Norwalk", "country": "US", "coord": {"lat": 41.117599, "lon": -73.407898}, "state": "CT", "id": 4839822, "population": 103949}, {"name": "Norwalk", "country": "US", "coord": {"lat": 41.475552, "lon": -93.678833}, "state": "IA", "id": 4869386, "population": 103949}, {"name": "Norwalk", "country": "US", "coord": {"lat": 41.24255, "lon": -82.61573}, "state": "OH", "id": 5165101, "population": 103949}, {"name": "Norwalk", "country": "US", "coord": {"lat": 33.902241, "lon": -118.081734}, "state": "CA", "id": 5377995, "population": 103949}, {"name": "Rialto", "country": "US", "coord": {"lat": 34.1064, "lon": -117.370323}, "state": "CA", "id": 5387288, "population": 103526}, {"name": "Las Cruces", "country": "US", "coord": {"lat": 32.312321, "lon": -106.778343}, "state": "NM", "id": 5475352, "population": 103432}, {"name": "El Cajon", "country": "US", "coord": {"lat": 32.794769, "lon": -116.962532}, "state": "CA", "id": 5345529, "population": 102708}, {"name": "Ajo", "country": "US", "coord": {"lat": 32.371719, "lon": -112.86071}, "state": "AZ", "id": 5550996, "population": 102708}, {"name": "Burbank", "country": "US", "coord": {"lat": 41.733921, "lon": -87.779503}, "state": "IL", "id": 4885983, "population": 102511}, {"name": "Burbank", "country": "US", "coord": {"lat": 34.18084, "lon": -118.308968}, "state": "CA", "id": 5331835, "population": 102511}, {"name": "Burbank", "country": "US", "coord": {"lat": 37.32328, "lon": -121.931618}, "state": "CA", "id": 5331836, "population": 102511}, {"name": "Burbank", "country": "US", "coord": {"lat": 46.19986, "lon": -119.013062}, "state": "WA", "id": 5788497, "population": 102511}, {"name": "Tuscaloosa", "country": "US", "coord": {"lat": 33.209839, "lon": -87.569168}, "state": "AL", "id": 4094455, "population": 101129}, {"name": "Spokane Valley", "country": "US", "coord": {"lat": 47.673229, "lon": -117.239372}, "state": "WA", "id": 5811729, "population": 101060}, {"name": "Angelo", "country": "US", "coord": {"lat": 43.970798, "lon": -90.777908}, "state": "WI", "id": 5243968, "population": 101004}, {"name": "San Angelo", "country": "US", "coord": {"lat": 31.46377, "lon": -100.437042}, "state": "TX", "id": 5530022, "population": 101004}, {"name": "Vacaville", "country": "US", "coord": {"lat": 38.356579, "lon": -121.98774}, "state": "CA", "id": 5405228, "population": 100670}, {"name": "Kenosha", "country": "US", "coord": {"lat": 42.58474, "lon": -87.82119}, "state": "WI", "id": 5258393, "population": 99944}, {"name": "Boca Raton", "country": "US", "coord": {"lat": 26.35869, "lon": -80.083099}, "state": "FL", "id": 4148411, "population": 99805}, {"name": "Raton", "country": "US", "coord": {"lat": 36.903358, "lon": -104.439148}, "state": "NM", "id": 5486795, "population": 99805}, {"name": "Lee's Summit", "country": "US", "coord": {"lat": 38.910839, "lon": -94.382172}, "state": "MO", "id": 4394870, "population": 99357}, {"name": "Nampa", "country": "US", "coord": {"lat": 43.540722, "lon": -116.563461}, "state": "ID", "id": 5601933, "population": 99277}, {"name": "Rio Rancho", "country": "US", "coord": {"lat": 35.233379, "lon": -106.664467}, "state": "NM", "id": 5487811, "population": 99178}, {"name": "Fulton", "country": "US", "coord": {"lat": 30.38413, "lon": -81.492867}, "state": "FL", "id": 4156363, "population": 99155}, {"name": "Fulton", "country": "US", "coord": {"lat": 36.50423, "lon": -88.874229}, "state": "KY", "id": 4292424, "population": 99155}, {"name": "Fulton", "country": "US", "coord": {"lat": 39.15094, "lon": -76.923027}, "state": "MD", "id": 4355809, "population": 99155}, {"name": "Fulton", "country": "US", "coord": {"lat": 38.84671, "lon": -91.94796}, "state": "MO", "id": 4387496, "population": 99155}, {"name": "Fulton", "country": "US", "coord": {"lat": 34.273991, "lon": -88.40921}, "state": "MS", "id": 4427345, "population": 99155}, {"name": "South Fulton", "country": "US", "coord": {"lat": 36.500889, "lon": -88.875343}, "state": "TN", "id": 4658948, "population": 99155}, {"name": "Fulton", "country": "US", "coord": {"lat": 28.061399, "lon": -97.0411}, "state": "TX", "id": 4692661, "population": 99155}, {"name": "Fulton", "country": "US", "coord": {"lat": 41.867249, "lon": -90.159569}, "state": "IL", "id": 4893309, "population": 99155}, {"name": "Fulton", "country": "US", "coord": {"lat": 43.322849, "lon": -76.41716}, "state": "NY", "id": 5118136, "population": 99155}, {"name": "Fulton", "country": "US", "coord": {"lat": 45.730412, "lon": -118.749153}, "state": "OR", "id": 5727859, "population": 99155}, {"name": "Orem", "country": "US", "coord": {"lat": 40.296902, "lon": -111.694649}, "state": "UT", "id": 5779334, "population": 97828}, {"name": "Longmont", "country": "US", "coord": {"lat": 40.16721, "lon": -105.101929}, "state": "CO", "id": 5579276, "population": 97261}, {"name": "San Marcos", "country": "US", "coord": {"lat": 29.88327, "lon": -97.941391}, "state": "TX", "id": 4726491, "population": 96664}, {"name": "San Marcos", "country": "US", "coord": {"lat": 33.143372, "lon": -117.166138}, "state": "CA", "id": 5392368, "population": 96664}, {"name": "Federal Way", "country": "US", "coord": {"lat": 47.322319, "lon": -122.312622}, "state": "WA", "id": 5794245, "population": 96289}, {"name": "Hesperia", "country": "US", "coord": {"lat": 34.426392, "lon": -117.30088}, "state": "CA", "id": 5356576, "population": 95750}, {"name": "Flint City", "country": "US", "coord": {"lat": 34.523151, "lon": -86.970291}, "state": "AL", "id": 4062523, "population": 95538}, {"name": "New Bedford", "country": "US", "coord": {"lat": 41.636219, "lon": -70.934196}, "state": "MA", "id": 4945121, "population": 95363}, {"name": "Fishers", "country": "US", "coord": {"lat": 39.955589, "lon": -86.01387}, "state": "IN", "id": 4257494, "population": 95310}, {"name": "Sunrise", "country": "US", "coord": {"lat": 26.157669, "lon": -80.28611}, "state": "FL", "id": 4174402, "population": 95166}, {"name": "Roswell", "country": "US", "coord": {"lat": 34.023159, "lon": -84.361588}, "state": "GA", "id": 4219934, "population": 94763}, {"name": "Roswell", "country": "US", "coord": {"lat": 33.394272, "lon": -104.523018}, "state": "NM", "id": 5488441, "population": 94763}, {"name": "Menifee", "country": "US", "coord": {"lat": 33.728352, "lon": -117.146423}, "state": "CA", "id": 5372205, "population": 94756}, {"name": "Tracy City", "country": "US", "coord": {"lat": 35.260361, "lon": -85.736076}, "state": "TN", "id": 4663110, "population": 94740}, {"name": "Tracy", "country": "US", "coord": {"lat": 44.233292, "lon": -95.619179}, "state": "MN", "id": 5050290, "population": 94740}, {"name": "Tracy", "country": "US", "coord": {"lat": 37.739651, "lon": -121.425217}, "state": "CA", "id": 5403191, "population": 94740}, {"name": "Portsmouth", "country": "US", "coord": {"lat": 38.731739, "lon": -82.997673}, "state": "OH", "id": 4521816, "population": 94398}, {"name": "Portsmouth", "country": "US", "coord": {"lat": 36.83543, "lon": -76.298271}, "state": "VA", "id": 4779999, "population": 94398}, {"name": "Portsmouth", "country": "US", "coord": {"lat": 43.071758, "lon": -70.76255}, "state": "NH", "id": 5091383, "population": 94398}, {"name": "Portsmouth", "country": "US", "coord": {"lat": 41.602322, "lon": -71.250328}, "state": "RI", "id": 5224082, "population": 94398}, {"name": "Mission Viejo", "country": "US", "coord": {"lat": 33.600021, "lon": -117.671997}, "state": "CA", "id": 5373763, "population": 94381}, {"name": "Dearborn", "country": "US", "coord": {"lat": 42.322262, "lon": -83.176308}, "state": "MI", "id": 4990510, "population": 93932}, {"name": "Yakima", "country": "US", "coord": {"lat": 46.60207, "lon": -120.505898}, "state": "WA", "id": 5816605, "population": 93637}, {"name": "South Gate", "country": "US", "coord": {"lat": 39.129002, "lon": -76.625801}, "state": "MD", "id": 4369964, "population": 93444}, {"name": "South Gate", "country": "US", "coord": {"lat": 33.954739, "lon": -118.212021}, "state": "CA", "id": 5397603, "population": 93444}, {"name": "Greenville", "country": "US", "coord": {"lat": 31.829599, "lon": -86.617752}, "state": "AL", "id": 4065302, "population": 93400}, {"name": "Greenville", "country": "US", "coord": {"lat": 39.778999, "lon": -75.598259}, "state": "DE", "id": 4142766, "population": 93400}, {"name": "Greenville", "country": "US", "coord": {"lat": 33.02874, "lon": -84.712982}, "state": "GA", "id": 4198218, "population": 93400}, {"name": "Greenville", "country": "US", "coord": {"lat": 38.892269, "lon": -89.413139}, "state": "IL", "id": 4239867, "population": 93400}, {"name": "Greenville", "country": "US", "coord": {"lat": 37.201149, "lon": -87.178886}, "state": "KY", "id": 4293477, "population": 93400}, {"name": "Greenville", "country": "US", "coord": {"lat": 37.12727, "lon": -90.450111}, "state": "MO", "id": 4388822, "population": 93400}, {"name": "Greenville", "country": "US", "coord": {"lat": 33.410118, "lon": -91.061768}, "state": "MS", "id": 4428475, "population": 93400}, {"name": "Greenville", "country": "US", "coord": {"lat": 35.612659, "lon": -77.366348}, "state": "NC", "id": 4469160, "population": 93400}, {"name": "Greenville", "country": "US", "coord": {"lat": 34.852619, "lon": -82.394012}, "state": "SC", "id": 4580543, "population": 93400}, {"name": "Greenville", "country": "US", "coord": {"lat": 33.138451, "lon": -96.110809}, "state": "TX", "id": 4695066, "population": 93400}, {"name": "Greenville", "country": "US", "coord": {"lat": 45.459492, "lon": -69.590607}, "state": "ME", "id": 4965978, "population": 93400}, {"name": "Greenville", "country": "US", "coord": {"lat": 43.177528, "lon": -85.2528}, "state": "MI", "id": 4994763, "population": 93400}, {"name": "Greenville", "country": "US", "coord": {"lat": 42.767311, "lon": -71.812302}, "state": "NH", "id": 5086935, "population": 93400}, {"name": "Greenville", "country": "US", "coord": {"lat": 40.998169, "lon": -73.820831}, "state": "NY", "id": 5119405, "population": 93400}, {"name": "Greenville", "country": "US", "coord": {"lat": 40.102829, "lon": -84.633011}, "state": "OH", "id": 5156493, "population": 93400}, {"name": "Greenville", "country": "US", "coord": {"lat": 41.404499, "lon": -80.391182}, "state": "PA", "id": 5192019, "population": 93400}, {"name": "Greenville", "country": "US", "coord": {"lat": 41.871208, "lon": -71.55201}, "state": "RI", "id": 5222476, "population": 93400}, {"name": "Greenville", "country": "US", "coord": {"lat": 44.300259, "lon": -88.536499}, "state": "WI", "id": 5255099, "population": 93400}, {"name": "Greenville", "country": "US", "coord": {"lat": 40.13961, "lon": -120.951073}, "state": "CA", "id": 5564488, "population": 93400}, {"name": "Greenville", "country": "US", "coord": {"lat": 41.766319, "lon": -111.848282}, "state": "UT", "id": 5775438, "population": 93400}, {"name": "Asheville", "country": "US", "coord": {"lat": 35.600948, "lon": -82.554024}, "state": "NC", "id": 4453066, "population": 92870}, {"name": "Deltona", "country": "US", "coord": {"lat": 28.900539, "lon": -81.263672}, "state": "FL", "id": 4153146, "population": 92757}, {"name": "Redding", "country": "US", "coord": {"lat": 40.58654, "lon": -122.391678}, "state": "CA", "id": 5570160, "population": 92590}, {"name": "Suffolk", "country": "US", "coord": {"lat": 36.72821, "lon": -76.583557}, "state": "VA", "id": 4788158, "population": 92108}, {"name": "Santa Barbara", "country": "US", "coord": {"lat": 34.42083, "lon": -119.698189}, "state": "CA", "id": 5392952, "population": 91364}, {"name": "Conroe", "country": "US", "coord": {"lat": 30.31188, "lon": -95.456047}, "state": "TX", "id": 4682991, "population": 91079}, {"name": "Santa Monica", "country": "US", "coord": {"lat": 34.019451, "lon": -118.491188}, "state": "CA", "id": 5393212, "population": 90401}, {"name": "New Braunfels", "country": "US", "coord": {"lat": 29.702999, "lon": -98.124451}, "state": "TX", "id": 4714131, "population": 90209}, {"name": "Palm Coast", "country": "US", "coord": {"lat": 29.58497, "lon": -81.20784}, "state": "FL", "id": 4167538, "population": 89800}, {"name": "Fall River", "country": "US", "coord": {"lat": 41.701488, "lon": -71.155052}, "state": "MA", "id": 4936159, "population": 89541}, {"name": "Fall River", "country": "US", "coord": {"lat": 43.38443, "lon": -89.045113}, "state": "WI", "id": 5252474, "population": 89541}, {"name": "Champaign", "country": "US", "coord": {"lat": 40.116421, "lon": -88.243378}, "state": "IL", "id": 4887158, "population": 88909}, {"name": "San Leandro", "country": "US", "coord": {"lat": 37.72493, "lon": -122.156082}, "state": "CA", "id": 5392263, "population": 88815}, {"name": "Fort Smith", "country": "US", "coord": {"lat": 35.385921, "lon": -94.398552}, "state": "AR", "id": 4111410, "population": 87891}, {"name": "Citrus", "country": "US", "coord": {"lat": 34.115009, "lon": -117.891731}, "state": "CA", "id": 5337551, "population": 87796}, {"name": "Citrus Heights", "country": "US", "coord": {"lat": 38.707119, "lon": -121.281059}, "state": "CA", "id": 5337561, "population": 87796}, {"name": "Goodyear", "country": "US", "coord": {"lat": 33.435322, "lon": -112.358208}, "state": "AZ", "id": 5296266, "population": 86840}, {"name": "Bryan", "country": "US", "coord": {"lat": 30.67436, "lon": -96.369957}, "state": "TX", "id": 4677008, "population": 86276}, {"name": "Bryan", "country": "US", "coord": {"lat": 41.47477, "lon": -84.552452}, "state": "OH", "id": 5148533, "population": 86276}, {"name": "Waukegan", "country": "US", "coord": {"lat": 42.363628, "lon": -87.844788}, "state": "IL", "id": 4915734, "population": 86075}, {"name": "Redwood", "country": "US", "coord": {"lat": 29.810221, "lon": -97.911392}, "state": "TX", "id": 4722065, "population": 85925}, {"name": "Redwood City", "country": "US", "coord": {"lat": 37.485222, "lon": -122.236351}, "state": "CA", "id": 5386834, "population": 85925}, {"name": "Redwood", "country": "US", "coord": {"lat": 42.422058, "lon": -123.387283}, "state": "OR", "id": 5747900, "population": 85925}, {"name": "Duluth", "country": "US", "coord": {"lat": 34.00288, "lon": -84.144638}, "state": "GA", "id": 4192289, "population": 85618}, {"name": "Duluth", "country": "US", "coord": {"lat": 46.783272, "lon": -92.106583}, "state": "MN", "id": 5024719, "population": 85618}, {"name": "Hemet", "country": "US", "coord": {"lat": 33.74752, "lon": -116.97197}, "state": "CA", "id": 5356277, "population": 85334}, {"name": "Largo", "country": "US", "coord": {"lat": 27.90947, "lon": -82.787323}, "state": "FL", "id": 4161580, "population": 84948}, {"name": "Largo", "country": "US", "coord": {"lat": 38.89761, "lon": -76.830254}, "state": "MD", "id": 4360345, "population": 84948}, {"name": "Largo", "country": "US", "coord": {"lat": 39.021561, "lon": -123.129997}, "state": "CA", "id": 5365089, "population": 84948}, {"name": "Johns Creek", "country": "US", "coord": {"lat": 34.028931, "lon": -84.198578}, "state": "GA", "id": 6331909, "population": 84579}, {"name": "Newport Beach", "country": "US", "coord": {"lat": 33.618912, "lon": -117.928947}, "state": "CA", "id": 5376890, "population": 84534}, {"name": "Kennewick", "country": "US", "coord": {"lat": 46.21125, "lon": -119.13723}, "state": "WA", "id": 5799610, "population": 84347}, {"name": "Milpitas", "country": "US", "coord": {"lat": 37.428268, "lon": -121.906616}, "state": "CA", "id": 5373327, "population": 84196}, {"name": "Chino Hills", "country": "US", "coord": {"lat": 33.993801, "lon": -117.758881}, "state": "CA", "id": 5336545, "population": 83853}, {"name": "Manteca", "country": "US", "coord": {"lat": 37.797428, "lon": -121.216049}, "state": "CA", "id": 5370164, "population": 83028}, {"name": "Buena Park", "country": "US", "coord": {"lat": 42.792789, "lon": -88.220917}, "state": "WI", "id": 5247088, "population": 81788}, {"name": "Buena Park", "country": "US", "coord": {"lat": 33.867512, "lon": -117.998123}, "state": "CA", "id": 5331575, "population": 81788}, {"name": "Longview", "country": "US", "coord": {"lat": 35.729301, "lon": -81.383423}, "state": "NC", "id": 4477228, "population": 81631}, {"name": "Longview", "country": "US", "coord": {"lat": 32.500702, "lon": -94.740494}, "state": "TX", "id": 4707814, "population": 81631}, {"name": "Longview", "country": "US", "coord": {"lat": 46.138168, "lon": -122.938171}, "state": "WA", "id": 5801617, "population": 81631}, {"name": "Westland", "country": "US", "coord": {"lat": 42.3242, "lon": -83.400208}, "state": "MI", "id": 5014681, "population": 81511}, {"name": "Cranston", "country": "US", "coord": {"lat": 41.779819, "lon": -71.437279}, "state": "RI", "id": 5221659, "population": 81456}, {"name": "Rhode Island", "country": "US", "coord": {"lat": 41.750381, "lon": -71.499779}, "state": "RI", "id": 5224323, "population": 81456}, {"name": "Folsom", "country": "US", "coord": {"lat": 39.602058, "lon": -74.842667}, "state": "NJ", "id": 4501808, "population": 81328}, {"name": "Folsom", "country": "US", "coord": {"lat": 39.889832, "lon": -75.325188}, "state": "PA", "id": 4558002, "population": 81328}, {"name": "Folsom", "country": "US", "coord": {"lat": 38.677959, "lon": -121.176064}, "state": "CA", "id": 5349705, "population": 81328}, {"name": "Deerfield Beach", "country": "US", "coord": {"lat": 26.318411, "lon": -80.09977}, "state": "FL", "id": 4153071, "population": 81066}, {"name": "Deerfield", "country": "US", "coord": {"lat": 42.171139, "lon": -87.844513}, "state": "IL", "id": 4889668, "population": 81066}, {"name": "Deerfield", "country": "US", "coord": {"lat": 44.230621, "lon": -71.617027}, "state": "NH", "id": 5085369, "population": 81066}, {"name": "Deerfield", "country": "US", "coord": {"lat": 43.051941, "lon": -89.075668}, "state": "WI", "id": 5250368, "population": 81066}, {"name": "Farmington Hills", "country": "US", "coord": {"lat": 42.48531, "lon": -83.377159}, "state": "MI", "id": 4992523, "population": 80612}, {"name": "Brooklyn", "country": "US", "coord": {"lat": 39.539211, "lon": -86.369164}, "state": "IN", "id": 4254985, "population": 80389}, {"name": "Brooklyn Park", "country": "US", "coord": {"lat": 39.228439, "lon": -76.616364}, "state": "MD", "id": 4349599, "population": 80389}, {"name": "Brooklyn", "country": "US", "coord": {"lat": 41.733608, "lon": -92.445457}, "state": "IA", "id": 4849448, "population": 80389}, {"name": "Brooklyn", "country": "US", "coord": {"lat": 42.105869, "lon": -84.248283}, "state": "MI", "id": 4987064, "population": 80389}, {"name": "Brooklyn Park", "country": "US", "coord": {"lat": 45.094131, "lon": -93.356339}, "state": "MN", "id": 5019335, "population": 80389}, {"name": "Brooklyn", "country": "US", "coord": {"lat": 40.650101, "lon": -73.949577}, "state": "NY", "id": 5110302, "population": 80389}, {"name": "Brooklyn", "country": "US", "coord": {"lat": 41.43977, "lon": -81.735413}, "state": "OH", "id": 5148346, "population": 80389}, {"name": "Brooklyn", "country": "US", "coord": {"lat": 42.853611, "lon": -89.370399}, "state": "WI", "id": 5246849, "population": 80389}, {"name": "Lawrence", "country": "US", "coord": {"lat": 39.83865, "lon": -86.025261}, "state": "IN", "id": 4260210, "population": 80028}, {"name": "Lawrence", "country": "US", "coord": {"lat": 38.971668, "lon": -95.235252}, "state": "KS", "id": 4274277, "population": 80028}, {"name": "Lawrence", "country": "US", "coord": {"lat": 42.707039, "lon": -71.163109}, "state": "MA", "id": 4941720, "population": 80028}, {"name": "Lawrence", "country": "US", "coord": {"lat": 40.615662, "lon": -73.729584}, "state": "NY", "id": 5124087, "population": 80028}, {"name": "Cedar Park", "country": "US", "coord": {"lat": 30.505199, "lon": -97.82029}, "state": "TX", "id": 4679867, "population": 79462}, {"name": "Perris", "country": "US", "coord": {"lat": 33.78252, "lon": -117.228653}, "state": "CA", "id": 5382146, "population": 79291}, {"name": "Flower Mound", "country": "US", "coord": {"lat": 33.014568, "lon": -97.096962}, "state": "TX", "id": 4691585, "population": 79135}, {"name": "Pharr", "country": "US", "coord": {"lat": 26.194799, "lon": -98.183617}, "state": "TX", "id": 4718721, "population": 79112}, {"name": "Boynton Beach", "country": "US", "coord": {"lat": 26.525351, "lon": -80.066429}, "state": "FL", "id": 4148677, "population": 78679}, {"name": "New Rochelle", "country": "US", "coord": {"lat": 40.911491, "lon": -73.782349}, "state": "NY", "id": 5128549, "population": 78557}, {"name": "Lake Charles", "country": "US", "coord": {"lat": 30.213091, "lon": -93.204399}, "state": "LA", "id": 4330236, "population": 78396}, {"name": "Napa", "country": "US", "coord": {"lat": 38.297138, "lon": -122.28553}, "state": "CA", "id": 5376095, "population": 78130}, {"name": "Alameda", "country": "US", "coord": {"lat": 37.765209, "lon": -122.241638}, "state": "CA", "id": 5322737, "population": 77624}, {"name": "Warner Robins", "country": "US", "coord": {"lat": 32.620979, "lon": -83.599899}, "state": "GA", "id": 4229476, "population": 77617}, {"name": "Rapid City", "country": "US", "coord": {"lat": 44.83445, "lon": -85.282562}, "state": "MI", "id": 5006776, "population": 77503}, {"name": "Rapid City", "country": "US", "coord": {"lat": 44.08054, "lon": -103.23101}, "state": "SD", "id": 5768233, "population": 77503}, {"name": "Gastonia", "country": "US", "coord": {"lat": 35.262081, "lon": -81.187302}, "state": "NC", "id": 4467732, "population": 77273}, {"name": "Baytown", "country": "US", "coord": {"lat": 29.7355, "lon": -94.977432}, "state": "TX", "id": 4672731, "population": 77192}, {"name": "South Jordan", "country": "US", "coord": {"lat": 40.562168, "lon": -111.929657}, "state": "UT", "id": 5781770, "population": 76598}, {"name": "Kalamazoo", "country": "US", "coord": {"lat": 42.29171, "lon": -85.587227}, "state": "MI", "id": 4997787, "population": 76200}, {"name": "Kalama", "country": "US", "coord": {"lat": 46.00845, "lon": -122.844551}, "state": "WA", "id": 5799410, "population": 76200}, {"name": "San Ramon", "country": "US", "coord": {"lat": 37.77993, "lon": -121.97802}, "state": "CA", "id": 5392593, "population": 75995}, {"name": "Missoula", "country": "US", "coord": {"lat": 46.87215, "lon": -113.994003}, "state": "MT", "id": 5666639, "population": 75516}, {"name": "Missouri City", "country": "US", "coord": {"lat": 29.61857, "lon": -95.53772}, "state": "TX", "id": 4711801, "population": 75457}, {"name": "Pasco", "country": "US", "coord": {"lat": 46.239578, "lon": -119.100571}, "state": "WA", "id": 5806298, "population": 75432}, {"name": "Iowa City", "country": "US", "coord": {"lat": 41.661129, "lon": -91.530167}, "state": "IA", "id": 4862034, "population": 75130}, {"name": "Cordova", "country": "US", "coord": {"lat": 33.75983, "lon": -87.183327}, "state": "AL", "id": 4056920, "population": 75087}, {"name": "Cordova", "country": "US", "coord": {"lat": 34.91293, "lon": -79.821999}, "state": "NC", "id": 4461890, "population": 75087}, {"name": "Rancho Cordova", "country": "US", "coord": {"lat": 38.589069, "lon": -121.302727}, "state": "CA", "id": 5385941, "population": 75087}, {"name": "Cordova", "country": "US", "coord": {"lat": 60.542782, "lon": -145.757507}, "state": "AK", "id": 5859888, "population": 75087}, {"name": "Flagstaff", "country": "US", "coord": {"lat": 35.198071, "lon": -111.651268}, "state": "AZ", "id": 5294810, "population": 75038}, {"name": "Joseph City", "country": "US", "coord": {"lat": 34.95586, "lon": -110.334007}, "state": "AZ", "id": 5300182, "population": 74875}, {"name": "Joseph", "country": "US", "coord": {"lat": 45.354321, "lon": -117.229607}, "state": "OR", "id": 5734100, "population": 74875}, {"name": "Arlington Heights", "country": "US", "coord": {"lat": 42.08836, "lon": -87.980629}, "state": "IL", "id": 4883555, "population": 74760}, {"name": "Arlington Heights", "country": "US", "coord": {"lat": 40.990089, "lon": -75.216293}, "state": "PA", "id": 5178489, "population": 74760}, {"name": "Arlington Heights", "country": "US", "coord": {"lat": 48.202049, "lon": -122.06208}, "state": "WA", "id": 5785858, "population": 74760}, {"name": "Boling", "country": "US", "coord": {"lat": 29.26442, "lon": -95.94384}, "state": "TX", "id": 4675525, "population": 74545}, {"name": "Bolingbrook", "country": "US", "coord": {"lat": 41.698639, "lon": -88.068398}, "state": "IL", "id": 4885265, "population": 74545}, {"name": "Rochester Hills", "country": "US", "coord": {"lat": 42.658371, "lon": -83.149933}, "state": "MI", "id": 5007402, "population": 74516}, {"name": "Framingham", "country": "US", "coord": {"lat": 42.279259, "lon": -71.416168}, "state": "MA", "id": 4937230, "population": 74416}, {"name": "Appleton City", "country": "US", "coord": {"lat": 38.190578, "lon": -94.029388}, "state": "MO", "id": 4374993, "population": 74098}, {"name": "Appleton", "country": "US", "coord": {"lat": 44.289242, "lon": -69.250877}, "state": "ME", "id": 4956815, "population": 74098}, {"name": "Appleton", "country": "US", "coord": {"lat": 45.196911, "lon": -96.019768}, "state": "MN", "id": 5016496, "population": 74098}, {"name": "Appleton", "country": "US", "coord": {"lat": 44.261929, "lon": -88.415382}, "state": "WI", "id": 5244080, "population": 74098}, {"name": "Turlock", "country": "US", "coord": {"lat": 37.494659, "lon": -120.846588}, "state": "CA", "id": 5404024, "population": 73631}, {"name": "Evanston", "country": "US", "coord": {"lat": 42.041142, "lon": -87.690063}, "state": "IL", "id": 4891382, "population": 73473}, {"name": "Evanston", "country": "US", "coord": {"lat": 41.26828, "lon": -110.963242}, "state": "WY", "id": 5824805, "population": 73473}, {"name": "Schaumburg", "country": "US", "coord": {"lat": 42.03336, "lon": -88.083412}, "state": "IL", "id": 4910713, "population": 72887}, {"name": "Kissimmee", "country": "US", "coord": {"lat": 28.30468, "lon": -81.416672}, "state": "FL", "id": 4160983, "population": 72717}, {"name": "Southfield", "country": "US", "coord": {"lat": 42.47337, "lon": -83.22187}, "state": "MI", "id": 5010636, "population": 72689}, {"name": "Maple Grove", "country": "US", "coord": {"lat": 45.07246, "lon": -93.455788}, "state": "MN", "id": 5036493, "population": 72622}, {"name": "Waukesha", "country": "US", "coord": {"lat": 43.011681, "lon": -88.231483}, "state": "WI", "id": 5278052, "population": 72299}, {"name": "Pawtucket", "country": "US", "coord": {"lat": 41.878712, "lon": -71.382561}, "state": "RI", "id": 5223869, "population": 72117}, {"name": "Redmond", "country": "US", "coord": {"lat": 40.47887, "lon": -105.04081}, "state": "CO", "id": 5581329, "population": 71929}, {"name": "Redmond", "country": "US", "coord": {"lat": 44.272621, "lon": -121.17392}, "state": "OR", "id": 5747882, "population": 71929}, {"name": "Redmond", "country": "US", "coord": {"lat": 47.673988, "lon": -122.121513}, "state": "WA", "id": 5808079, "population": 71929}, {"name": "Lauderhill", "country": "US", "coord": {"lat": 26.14036, "lon": -80.213379}, "state": "FL", "id": 4161625, "population": 71868}, {"name": "Gulfport", "country": "US", "coord": {"lat": 27.74836, "lon": -82.70343}, "state": "FL", "id": 4157687, "population": 71705}, {"name": "Gulfport", "country": "US", "coord": {"lat": 30.36742, "lon": -89.092819}, "state": "MS", "id": 4428667, "population": 71705}, {"name": "Redland", "country": "US", "coord": {"lat": 39.14539, "lon": -77.14415}, "state": "MD", "id": 4366593, "population": 71513}, {"name": "Redland", "country": "US", "coord": {"lat": 31.40435, "lon": -94.721321}, "state": "TX", "id": 4722038, "population": 71513}, {"name": "Redlands", "country": "US", "coord": {"lat": 34.055569, "lon": -117.182541}, "state": "CA", "id": 5386754, "population": 71513}, {"name": "Redlands", "country": "US", "coord": {"lat": 39.078869, "lon": -108.635651}, "state": "CO", "id": 5436099, "population": 71513}, {"name": "North Port", "country": "US", "coord": {"lat": 27.04422, "lon": -82.235931}, "state": "FL", "id": 4166274, "population": 70724}, {"name": "North Richland Hills", "country": "US", "coord": {"lat": 32.834301, "lon": -97.228897}, "state": "TX", "id": 4715292, "population": 70670}, {"name": "Broomfield", "country": "US", "coord": {"lat": 39.92054, "lon": -105.086647}, "state": "CO", "id": 5415035, "population": 70465}, {"name": "Camarillo", "country": "US", "coord": {"lat": 34.216389, "lon": -119.037598}, "state": "CA", "id": 5333180, "population": 69888}, {"name": "Amarillo", "country": "US", "coord": {"lat": 35.222, "lon": -101.831299}, "state": "TX", "id": 5516233, "population": 69888}, {"name": "Lynwood", "country": "US", "coord": {"lat": 41.526421, "lon": -87.538651}, "state": "IL", "id": 4900739, "population": 69887}, {"name": "Lynwood", "country": "US", "coord": {"lat": 41.68364, "lon": -88.393677}, "state": "IL", "id": 4900740, "population": 69887}, {"name": "Lynwood", "country": "US", "coord": {"lat": 33.93029, "lon": -118.211456}, "state": "CA", "id": 5369367, "population": 69887}, {"name": "Lehi", "country": "US", "coord": {"lat": 40.391621, "lon": -111.850769}, "state": "UT", "id": 5777224, "population": 69724}, {"name": "Passaic", "country": "US", "coord": {"lat": 40.85677, "lon": -74.128479}, "state": "NJ", "id": 5102443, "population": 69703}, {"name": "Delray Beach", "country": "US", "coord": {"lat": 26.46146, "lon": -80.072823}, "state": "FL", "id": 4153132, "population": 69451}, {"name": "Lake Elsinore", "country": "US", "coord": {"lat": 33.668079, "lon": -117.327263}, "state": "CA", "id": 5364499, "population": 69283}, {"name": "Daytona Beach", "country": "US", "coord": {"lat": 29.21081, "lon": -81.022827}, "state": "FL", "id": 4152872, "population": 69186}, {"name": "Dothan", "country": "US", "coord": {"lat": 31.22323, "lon": -85.390488}, "state": "AL", "id": 4059102, "population": 68941}, {"name": "Rocklin", "country": "US", "coord": {"lat": 38.79073, "lon": -121.235779}, "state": "CA", "id": 5388319, "population": 68823}, {"name": "Eau Claire", "country": "US", "coord": {"lat": 44.811352, "lon": -91.498489}, "state": "WI", "id": 5251436, "population": 68802}, {"name": "Bossier City", "country": "US", "coord": {"lat": 32.515991, "lon": -93.732117}, "state": "LA", "id": 4317639, "population": 68159}, {"name": "Rockville", "country": "US", "coord": {"lat": 39.762539, "lon": -87.229179}, "state": "IN", "id": 4263850, "population": 68079}, {"name": "Rockville", "country": "US", "coord": {"lat": 39.084, "lon": -77.152763}, "state": "MD", "id": 4367175, "population": 68079}, {"name": "Rockville", "country": "US", "coord": {"lat": 41.86676, "lon": -72.449532}, "state": "CT", "id": 4841628, "population": 68079}, {"name": "Rockville", "country": "US", "coord": {"lat": 45.471909, "lon": -94.340828}, "state": "MN", "id": 5043571, "population": 68079}, {"name": "Muncie", "country": "US", "coord": {"lat": 40.193378, "lon": -85.38636}, "state": "IN", "id": 4924006, "population": 67999}, {"name": "Gaither", "country": "US", "coord": {"lat": 39.361488, "lon": -76.993027}, "state": "MD", "id": 4355837, "population": 67985}, {"name": "Gaithersburg", "country": "US", "coord": {"lat": 39.14344, "lon": -77.20137}, "state": "MD", "id": 4355843, "population": 67985}, {"name": "West Des Moines", "country": "US", "coord": {"lat": 41.571991, "lon": -93.745308}, "state": "IA", "id": 4881346, "population": 67899}, {"name": "South San Francisco", "country": "US", "coord": {"lat": 37.654659, "lon": -122.407753}, "state": "CA", "id": 5397765, "population": 67789}, {"name": "Linda", "country": "US", "coord": {"lat": 39.12767, "lon": -121.550797}, "state": "CA", "id": 5366531, "population": 67644}, {"name": "Yorba Linda", "country": "US", "coord": {"lat": 33.88863, "lon": -117.81311}, "state": "CA", "id": 5410902, "population": 67644}, {"name": "Palatine", "country": "US", "coord": {"lat": 42.110298, "lon": -88.034241}, "state": "IL", "id": 4905211, "population": 67482}, {"name": "Ankeny", "country": "US", "coord": {"lat": 41.72971, "lon": -93.605766}, "state": "IA", "id": 4846960, "population": 67355}, {"name": "Rowlett", "country": "US", "coord": {"lat": 32.902901, "lon": -96.563881}, "state": "TX", "id": 4724194, "population": 67339}, {"name": "Alpharetta", "country": "US", "coord": {"lat": 34.075378, "lon": -84.29409}, "state": "GA", "id": 4179574, "population": 67213}, {"name": "Yuba City", "country": "US", "coord": {"lat": 39.14045, "lon": -121.616913}, "state": "CA", "id": 5411015, "population": 67010}, {"name": "Oshkosh", "country": "US", "coord": {"lat": 44.024712, "lon": -88.54261}, "state": "WI", "id": 5265838, "population": 67004}, {"name": "Oshkosh", "country": "US", "coord": {"lat": 41.40498, "lon": -102.34436}, "state": "NE", "id": 5698120, "population": 67004}, {"name": "Redondo Beach", "country": "US", "coord": {"lat": 33.849178, "lon": -118.388412}, "state": "CA", "id": 5386785, "population": 66749}, {"name": "Tamarac", "country": "US", "coord": {"lat": 26.21286, "lon": -80.249771}, "state": "FL", "id": 4174738, "population": 66721}, {"name": "Laguna Niguel", "country": "US", "coord": {"lat": 33.52253, "lon": -117.70755}, "state": "CA", "id": 5364329, "population": 66385}, {"name": "Eagan", "country": "US", "coord": {"lat": 44.804131, "lon": -93.166893}, "state": "MN", "id": 5024825, "population": 66372}, {"name": "Kenner", "country": "US", "coord": {"lat": 29.994089, "lon": -90.241737}, "state": "LA", "id": 4329753, "population": 66340}, {"name": "Portland", "country": "US", "coord": {"lat": 36.581711, "lon": -86.51638}, "state": "TN", "id": 4650946, "population": 66215}, {"name": "Portland", "country": "US", "coord": {"lat": 27.877251, "lon": -97.323883}, "state": "TX", "id": 4720131, "population": 66215}, {"name": "Portland", "country": "US", "coord": {"lat": 41.57288, "lon": -72.640648}, "state": "CT", "id": 4841001, "population": 66215}, {"name": "Portland", "country": "US", "coord": {"lat": 40.43449, "lon": -84.977753}, "state": "IN", "id": 4925037, "population": 66215}, {"name": "Portland", "country": "US", "coord": {"lat": 43.661469, "lon": -70.255333}, "state": "ME", "id": 4975802, "population": 66215}, {"name": "Portland", "country": "US", "coord": {"lat": 42.869202, "lon": -84.903053}, "state": "MI", "id": 5006314, "population": 66215}, {"name": "Portland", "country": "US", "coord": {"lat": 45.523449, "lon": -122.676208}, "state": "OR", "id": 5746545, "population": 66215}, {"name": "Little Rock", "country": "US", "coord": {"lat": 34.746479, "lon": -92.289589}, "state": "AR", "id": 4119403, "population": 65903}, {"name": "North Little Rock", "country": "US", "coord": {"lat": 34.769539, "lon": -92.26709}, "state": "AR", "id": 4124112, "population": 65903}, {"name": "Little Rock", "country": "US", "coord": {"lat": 47.868011, "lon": -95.11055}, "state": "MN", "id": 5035199, "population": 65903}, {"name": "Sammamish", "country": "US", "coord": {"lat": 47.641769, "lon": -122.080399}, "state": "WA", "id": 5809402, "population": 65892}, {"name": "Madera", "country": "US", "coord": {"lat": 36.961342, "lon": -120.060722}, "state": "CA", "id": 5369568, "population": 65860}, {"name": "Shawnee", "country": "US", "coord": {"lat": 39.041672, "lon": -94.720238}, "state": "KS", "id": 4279247, "population": 65807}, {"name": "Shawnee", "country": "US", "coord": {"lat": 35.32729, "lon": -96.925301}, "state": "OK", "id": 4551177, "population": 65807}, {"name": "Doral", "country": "US", "coord": {"lat": 25.81954, "lon": -80.355331}, "state": "FL", "id": 4153471, "population": 65741}, {"name": "Blaine", "country": "US", "coord": {"lat": 36.154251, "lon": -83.704071}, "state": "TN", "id": 4607005, "population": 65607}, {"name": "Blaine", "country": "US", "coord": {"lat": 45.160801, "lon": -93.234947}, "state": "MN", "id": 5018651, "population": 65607}, {"name": "Blaine", "country": "US", "coord": {"lat": 48.993721, "lon": -122.747124}, "state": "WA", "id": 5787475, "population": 65607}, {"name": "Pflugerville", "country": "US", "coord": {"lat": 30.439369, "lon": -97.620003}, "state": "TX", "id": 4718711, "population": 65380}, {"name": "Schenectady", "country": "US", "coord": {"lat": 42.81424, "lon": -73.939568}, "state": "NY", "id": 5136454, "population": 65273}, {"name": "Harlingen", "country": "US", "coord": {"lat": 26.19063, "lon": -97.696098}, "state": "TX", "id": 4696233, "population": 65022}, {"name": "Bayonne", "country": "US", "coord": {"lat": 40.668709, "lon": -74.114311}, "state": "NJ", "id": 5095445, "population": 64897}, {"name": "Eden Prairie", "country": "US", "coord": {"lat": 44.854691, "lon": -93.470787}, "state": "MN", "id": 5025219, "population": 64893}, {"name": "Port Orange", "country": "US", "coord": {"lat": 29.138321, "lon": -80.995613}, "state": "FL", "id": 4169156, "population": 64842}, {"name": "Noblesville", "country": "US", "coord": {"lat": 40.045589, "lon": -86.008598}, "state": "IN", "id": 4924198, "population": 64668}, {"name": "Santa Cruz", "country": "US", "coord": {"lat": 36.974121, "lon": -122.0308}, "state": "CA", "id": 5393052, "population": 64608}, {"name": "San Clemente", "country": "US", "coord": {"lat": 33.426971, "lon": -117.611992}, "state": "CA", "id": 5391791, "population": 64558}, {"name": "Brent", "country": "US", "coord": {"lat": 32.937351, "lon": -87.164719}, "state": "AL", "id": 4051669, "population": 64474}, {"name": "Brent", "country": "US", "coord": {"lat": 30.468809, "lon": -87.236076}, "state": "FL", "id": 4148803, "population": 64474}, {"name": "Brentwood", "country": "US", "coord": {"lat": 38.943169, "lon": -76.956642}, "state": "MD", "id": 4349337, "population": 64474}, {"name": "Brentwood", "country": "US", "coord": {"lat": 38.61755, "lon": -90.349281}, "state": "MO", "id": 4378312, "population": 64474}, {"name": "Brentwood", "country": "US", "coord": {"lat": 36.033119, "lon": -86.782784}, "state": "TN", "id": 4608408, "population": 64474}, {"name": "Brentwood", "country": "US", "coord": {"lat": 42.978699, "lon": -71.072838}, "state": "NH", "id": 5083780, "population": 64474}, {"name": "Brentwood", "country": "US", "coord": {"lat": 40.781212, "lon": -73.246231}, "state": "NY", "id": 5110077, "population": 64474}, {"name": "Brentwood", "country": "US", "coord": {"lat": 40.370628, "lon": -79.97477}, "state": "PA", "id": 5181553, "population": 64474}, {"name": "Brentwood", "country": "US", "coord": {"lat": 37.926868, "lon": -121.725769}, "state": "CA", "id": 5330642, "population": 64474}, {"name": "East Orange", "country": "US", "coord": {"lat": 40.767319, "lon": -74.204872}, "state": "NJ", "id": 5097441, "population": 64367}, {"name": "Cheyenne", "country": "US", "coord": {"lat": 35.613941, "lon": -99.671494}, "state": "OK", "id": 4533006, "population": 64235}, {"name": "Cheyenne", "country": "US", "coord": {"lat": 41.13998, "lon": -104.820251}, "state": "WY", "id": 5821086, "population": 64235}, {"name": "Chapel Hill", "country": "US", "coord": {"lat": 35.9132, "lon": -79.05584}, "state": "NC", "id": 4460162, "population": 64051}, {"name": "Chapel Hill", "country": "US", "coord": {"lat": 35.626461, "lon": -86.693329}, "state": "TN", "id": 4612725, "population": 64051}, {"name": "Haverhill", "country": "US", "coord": {"lat": 26.691179, "lon": -80.120041}, "state": "FL", "id": 4158239, "population": 64014}, {"name": "Haverhill", "country": "US", "coord": {"lat": 42.776199, "lon": -71.077278}, "state": "MA", "id": 4939085, "population": 64014}, {"name": "Haverhill", "country": "US", "coord": {"lat": 44.034512, "lon": -72.06398}, "state": "NH", "id": 5087270, "population": 64014}, {"name": "Grand Junction", "country": "US", "coord": {"lat": 39.063869, "lon": -108.550652}, "state": "CO", "id": 5423573, "population": 63597}, {"name": "Coon Rapids", "country": "US", "coord": {"lat": 41.870819, "lon": -94.677483}, "state": "IA", "id": 4852589, "population": 62998}, {"name": "Coon Rapids", "country": "US", "coord": {"lat": 45.119968, "lon": -93.287727}, "state": "MN", "id": 5022025, "population": 62998}, {"name": "Idaho Falls", "country": "US", "coord": {"lat": 43.466579, "lon": -112.034142}, "state": "ID", "id": 5596475, "population": 62888}, {"name": "North Miami", "country": "US", "coord": {"lat": 25.890091, "lon": -80.186707}, "state": "FL", "id": 4166232, "population": 62822}, {"name": "Encinitas", "country": "US", "coord": {"lat": 33.036991, "lon": -117.291977}, "state": "CA", "id": 5346646, "population": 62709}, {"name": "Skokie", "country": "US", "coord": {"lat": 42.03336, "lon": -87.733391}, "state": "IL", "id": 4911600, "population": 62700}, {"name": "Leander", "country": "US", "coord": {"lat": 30.57881, "lon": -97.853073}, "state": "TX", "id": 4705708, "population": 62608}, {"name": "Council Bluffs", "country": "US", "coord": {"lat": 41.26194, "lon": -95.860832}, "state": "IA", "id": 4852832, "population": 62166}, {"name": "Pico Rivera", "country": "US", "coord": {"lat": 33.98307, "lon": -118.096741}, "state": "CA", "id": 5382496, "population": 62027}, {"name": "Montebello", "country": "US", "coord": {"lat": 41.135929, "lon": -74.118477}, "state": "NY", "id": 5127335, "population": 61954}, {"name": "Montebello", "country": "US", "coord": {"lat": 34.00946, "lon": -118.105347}, "state": "CA", "id": 5374322, "population": 61954}, {"name": "Millcreek", "country": "US", "coord": {"lat": 40.68689, "lon": -111.875488}, "state": "UT", "id": 5778352, "population": 61450}, {"name": "Iona", "country": "US", "coord": {"lat": 26.520361, "lon": -81.963982}, "state": "FL", "id": 4159805, "population": 61394}, {"name": "Iona", "country": "US", "coord": {"lat": 43.54306, "lon": -99.42482}, "state": "SD", "id": 5228733, "population": 61394}, {"name": "National City", "country": "US", "coord": {"lat": 32.678108, "lon": -117.099197}, "state": "CA", "id": 5376200, "population": 61394}, {"name": "Iona", "country": "US", "coord": {"lat": 43.526299, "lon": -111.933022}, "state": "ID", "id": 5596741, "population": 61394}, {"name": "Burnsville", "country": "US", "coord": {"lat": 35.11237, "lon": -80.244507}, "state": "NC", "id": 4458264, "population": 61339}, {"name": "Burnsville", "country": "US", "coord": {"lat": 35.917339, "lon": -82.300957}, "state": "NC", "id": 4458265, "population": 61339}, {"name": "Burnsville", "country": "US", "coord": {"lat": 44.767738, "lon": -93.277718}, "state": "MN", "id": 5019767, "population": 61339}, {"name": "Coconut Creek", "country": "US", "coord": {"lat": 26.251751, "lon": -80.17894}, "state": "FL", "id": 4151455, "population": 61248}, {"name": "Ocala", "country": "US", "coord": {"lat": 29.187201, "lon": -82.140091}, "state": "FL", "id": 4166673, "population": 60786}, {"name": "Petaluma", "country": "US", "coord": {"lat": 38.232422, "lon": -122.63665}, "state": "CA", "id": 5382232, "population": 60520}, {"name": "Owensboro", "country": "US", "coord": {"lat": 37.77422, "lon": -87.113327}, "state": "KY", "id": 4303436, "population": 60131}, {"name": "West Allis", "country": "US", "coord": {"lat": 43.016682, "lon": -88.007027}, "state": "WI", "id": 5278420, "population": 59890}, {"name": "Park City", "country": "US", "coord": {"lat": 37.800011, "lon": -97.318382}, "state": "KS", "id": 4276974, "population": 59669}, {"name": "Monterey", "country": "US", "coord": {"lat": 36.14756, "lon": -85.268303}, "state": "TN", "id": 4642410, "population": 59669}, {"name": "Park City", "country": "US", "coord": {"lat": 35.082031, "lon": -86.571114}, "state": "TN", "id": 4647992, "population": 59669}, {"name": "Monterey", "country": "US", "coord": {"lat": 38.412338, "lon": -79.580597}, "state": "VA", "id": 4773690, "population": 59669}, {"name": "Park City", "country": "US", "coord": {"lat": 42.348358, "lon": -87.884239}, "state": "IL", "id": 4905334, "population": 59669}, {"name": "Monterey", "country": "US", "coord": {"lat": 36.600239, "lon": -121.894676}, "state": "CA", "id": 5374361, "population": 59669}, {"name": "Monterey Park", "country": "US", "coord": {"lat": 34.062511, "lon": -118.122849}, "state": "CA", "id": 5374406, "population": 59669}, {"name": "Park City", "country": "US", "coord": {"lat": 40.646061, "lon": -111.497971}, "state": "UT", "id": 5779451, "population": 59669}, {"name": "Monterey Park", "country": "US", "coord": {"lat": 34.75898, "lon": -106.640846}, "state": "NM", "id": 7176024, "population": 59669}, {"name": "Bonita Springs", "country": "US", "coord": {"lat": 26.339809, "lon": -81.778702}, "state": "FL", "id": 4148533, "population": 59637}, {"name": "Bonita", "country": "US", "coord": {"lat": 36.95245, "lon": -120.201828}, "state": "CA", "id": 5329953, "population": 59637}, {"name": "Bonita", "country": "US", "coord": {"lat": 32.657829, "lon": -117.030029}, "state": "CA", "id": 5329954, "population": 59637}, {"name": "Porterville", "country": "US", "coord": {"lat": 36.065231, "lon": -119.016769}, "state": "CA", "id": 5384471, "population": 59599}, {"name": "Vineland", "country": "US", "coord": {"lat": 39.486229, "lon": -75.025726}, "state": "NJ", "id": 4504621, "population": 59439}, {"name": "Vineland", "country": "US", "coord": {"lat": 46.16357, "lon": -93.757469}, "state": "MN", "id": 5051443, "population": 59439}, {"name": "Pontiac", "country": "US", "coord": {"lat": 40.880871, "lon": -88.629784}, "state": "IL", "id": 4906438, "population": 59438}, {"name": "Pontiac", "country": "US", "coord": {"lat": 42.63892, "lon": -83.291054}, "state": "MI", "id": 5006166, "population": 59438}, {"name": "Meriden", "country": "US", "coord": {"lat": 41.538151, "lon": -72.807037}, "state": "CT", "id": 4838524, "population": 59395}, {"name": "Meriden", "country": "US", "coord": {"lat": 44.074131, "lon": -93.386879}, "state": "MN", "id": 5037298, "population": 59395}, {"name": "Meriden", "country": "US", "coord": {"lat": 41.543591, "lon": -104.31913}, "state": "WY", "id": 5832096, "population": 59395}, {"name": "Apex", "country": "US", "coord": {"lat": 35.732651, "lon": -78.850288}, "state": "NC", "id": 4452808, "population": 59300}, {"name": "Royal Oak", "country": "US", "coord": {"lat": 42.489479, "lon": -83.144653}, "state": "MI", "id": 5007804, "population": 59277}, {"name": "Cupertino", "country": "US", "coord": {"lat": 37.323002, "lon": -122.032181}, "state": "CA", "id": 5341145, "population": 59276}, {"name": "Mesa", "country": "US", "coord": {"lat": 33.422272, "lon": -111.822639}, "state": "AZ", "id": 5304391, "population": 59249}, {"name": "La Mesa", "country": "US", "coord": {"lat": 32.76783, "lon": -117.023079}, "state": "CA", "id": 5363990, "population": 59249}, {"name": "Gilroy", "country": "US", "coord": {"lat": 37.005779, "lon": -121.568283}, "state": "CA", "id": 5352214, "population": 59032}, {"name": "Des Plaines", "country": "US", "coord": {"lat": 42.03336, "lon": -87.8834}, "state": "IL", "id": 4889772, "population": 58899}, {"name": "Corvallis", "country": "US", "coord": {"lat": 44.564571, "lon": -123.262039}, "state": "OR", "id": 5720727, "population": 58856}, {"name": "Bowie", "country": "US", "coord": {"lat": 38.94278, "lon": -76.730278}, "state": "MD", "id": 4349159, "population": 58643}, {"name": "Bowie", "country": "US", "coord": {"lat": 33.558998, "lon": -97.848648}, "state": "TX", "id": 4675803, "population": 58643}, {"name": "Casa Grande", "country": "US", "coord": {"lat": 32.879501, "lon": -111.757347}, "state": "AZ", "id": 5288636, "population": 58632}, {"name": "San Rafael", "country": "US", "coord": {"lat": 37.97353, "lon": -122.53109}, "state": "CA", "id": 5392567, "population": 58440}, {"name": "Great Falls", "country": "US", "coord": {"lat": 34.575142, "lon": -80.902023}, "state": "SC", "id": 4580354, "population": 58434}, {"name": "Great Falls", "country": "US", "coord": {"lat": 38.998169, "lon": -77.288322}, "state": "VA", "id": 4761951, "population": 58434}, {"name": "Great Falls", "country": "US", "coord": {"lat": 47.50024, "lon": -111.300812}, "state": "MT", "id": 5655240, "population": 58434}, {"name": "Sarasota", "country": "US", "coord": {"lat": 27.33643, "lon": -82.530647}, "state": "FL", "id": 4172131, "population": 58285}, {"name": "Hendersonville", "country": "US", "coord": {"lat": 35.318729, "lon": -82.460953}, "state": "NC", "id": 4470592, "population": 58113}, {"name": "Hendersonville", "country": "US", "coord": {"lat": 36.304771, "lon": -86.620003}, "state": "TN", "id": 4628735, "population": 58113}, {"name": "White Plains", "country": "US", "coord": {"lat": 35.23402, "lon": -81.39814}, "state": "NC", "id": 4498720, "population": 58109}, {"name": "White Plains", "country": "US", "coord": {"lat": 36.44569, "lon": -80.6334}, "state": "NC", "id": 4498722, "population": 58109}, {"name": "Plains", "country": "US", "coord": {"lat": 41.140652, "lon": -74.701828}, "state": "NJ", "id": 5102727, "population": 58109}, {"name": "White Plains", "country": "US", "coord": {"lat": 41.033989, "lon": -73.762909}, "state": "NY", "id": 5144336, "population": 58109}, {"name": "Plains", "country": "US", "coord": {"lat": 41.27536, "lon": -75.850197}, "state": "PA", "id": 5206422, "population": 58109}, {"name": "White", "country": "US", "coord": {"lat": 44.434689, "lon": -96.649773}, "state": "SD", "id": 5232895, "population": 58109}, {"name": "Plains", "country": "US", "coord": {"lat": 37.2603, "lon": -100.592651}, "state": "KS", "id": 5446185, "population": 58109}, {"name": "Plains", "country": "US", "coord": {"lat": 33.188709, "lon": -102.827988}, "state": "TX", "id": 5528440, "population": 58109}, {"name": "Plains", "country": "US", "coord": {"lat": 47.460209, "lon": -114.882912}, "state": "MT", "id": 5671710, "population": 58109}, {"name": "Huntersville", "country": "US", "coord": {"lat": 35.41069, "lon": -80.84285}, "state": "NC", "id": 4472370, "population": 58098}, {"name": "Kokomo", "country": "US", "coord": {"lat": 40.486431, "lon": -86.133598}, "state": "IN", "id": 4922388, "population": 58020}, {"name": "Casper", "country": "US", "coord": {"lat": 42.866631, "lon": -106.31308}, "state": "WY", "id": 5820705, "population": 57931}, {"name": "Dubuque", "country": "US", "coord": {"lat": 42.500561, "lon": -90.664574}, "state": "IA", "id": 4854529, "population": 57882}, {"name": "Orland Park", "country": "US", "coord": {"lat": 41.63031, "lon": -87.853943}, "state": "IL", "id": 4904937, "population": 57857}, {"name": "Weymouth", "country": "US", "coord": {"lat": 42.220928, "lon": -70.939774}, "state": "MA", "id": 4955336, "population": 57746}, {"name": "Palm Beach Gardens", "country": "US", "coord": {"lat": 26.823389, "lon": -80.138649}, "state": "FL", "id": 4167519, "population": 57704}, {"name": "Hanford", "country": "US", "coord": {"lat": 36.32745, "lon": -119.645683}, "state": "CA", "id": 5355180, "population": 57703}, {"name": "Huntington Park", "country": "US", "coord": {"lat": 33.981682, "lon": -118.225067}, "state": "CA", "id": 5358736, "population": 57509}, {"name": "Midwest City", "country": "US", "coord": {"lat": 35.449509, "lon": -97.396698}, "state": "OK", "id": 4542765, "population": 57407}, {"name": "Medford", "country": "US", "coord": {"lat": 36.806969, "lon": -97.733658}, "state": "OK", "id": 4542557, "population": 57341}, {"name": "Medford", "country": "US", "coord": {"lat": 42.41843, "lon": -71.106163}, "state": "MA", "id": 4943629, "population": 57341}, {"name": "Medford", "country": "US", "coord": {"lat": 44.174129, "lon": -93.246323},